{"version": 0.6, "generator": "Overpass API 0.7.62.10 2d4cfc48", "osm3s": {"timestamp_osm_base": "2026-02-20T15:00:02Z", "copyright": "The data included in this document is from www.openstreetmap.org. The data is made available under ODbL."}, "elements": [{"type": "node", "id": 258234549, "lat": 50.0747804, "lon": 19.9101542, "tags": {"name": "O! Shop", "shop": "convenience"}}, {"type": "node", "id": 475387238, "lat": 50.0620999, "lon": 19.9344646, "tags": {"check_date": "2025-12-09", "name": "Pasja", "opening_hours": "Mo-Fr 11:00-19:00; Sa 11:00-16:00", "shop": "antiques"}}, {"type": "node", "id": 475387244, "lat": 50.062259, "lon": 19.9346463, "tags": {"name": "Cleo", "shop": "hairdresser"}}, {"type": "node", "id": 475387270, "lat": 50.064237, "lon": 19.9355769, "tags": {"collector": "stamps;coins", "name": "Filatelia-Hobby", "opening_hours": "Mo-Fr 11:00-19:00", "shop": "collector", "website": "https://filateliahobby.pl"}}, {"type": "node", "id": 488257861, "lat": 50.0624347, "lon": 19.9353823, "tags": {"name": "Krakuska Sztuka Ludowa", "opening_hours": "Mo-Fr 10:00-20:00; Sa 11:00-20:00; Su 11:00-18:00", "shop": "craft", "wheelchair": "no"}}, {"type": "node", "id": 488257918, "lat": 50.0630662, "lon": 19.9338487, "tags": {"addr:street": "Szewska", "amenity": "cafe", "name": "Nakielny", "opening_hours": "PH,Mo-Su 09:00-21:00", "shop": "pastry", "website": "https://www.nakielny.pl"}}, {"type": "node", "id": 488257930, "lat": 50.0629403, "lon": 19.9341578, "tags": {"check_date:opening_hours": "2024-02-16", "name": "Zielarnia Herbapol", "opening_hours": "Mo-Fr 10:00-18:00; Sa 10:00-15:00", "shop": "herbalist", "source": "memory, http://www.herbapol.krakow.pl/site.php?id_menu=8", "wheelchair": "no"}}, {"type": "node", "id": 488257963, "lat": 50.0625435, "lon": 19.9347212, "tags": {"check_date": "2024-08-03", "name": "Zegarmistrz J\u00f3zef P\u0142onka", "opening_hours": "Mo-Fr 10:30-19:00; Sa 11:00-15:00", "shop": "watchmaker"}}, {"type": "node", "id": 488257984, "lat": 50.0626321, "lon": 19.9344588, "tags": {"addr:street": "Szewska", "check_date": "2025-07-24", "name": "Floristica", "opening_hours": "Mo-Fr 08:00-21:00; Sa 08:00-20:00; Su 10:00-16:00", "shop": "florist"}}, {"type": "node", "id": 488258073, "lat": 50.0616263, "lon": 19.9344275, "tags": {"name": "Ksi\u0119garnia Akademicka", "name:be": "\u0410\u043a\u0430\u0434\u044d\u043c\u0456\u0447\u043d\u0430\u044f \u043a\u043d\u0456\u0433\u0430\u0440\u043d\u044f", "name:pl": "Ksi\u0119garnia Akademicka", "opening_hours": "Mo-Fr 09:00-19:00; Sa 10:00-14:00", "shop": "books", "website": "https://akademicka.com.pl/"}}, {"type": "node", "id": 873821873, "lat": 50.0667965, "lon": 19.9220191, "tags": {"name": "Avita", "opening_hours": "Mo-Fr 06:00-22:00; Sa 07:00-19:00", "shop": "convenience"}}, {"type": "node", "id": 873823406, "lat": 50.066677, "lon": 19.9227168, "tags": {"check_date": "2025-12-21", "level": "1", "shop": "vacant"}}, {"type": "node", "id": 935797788, "lat": 50.0638749, "lon": 19.9327861, "tags": {"addr:city": "Krak\u00f3w", "addr:country": "PL", "addr:housenumber": "3", "addr:street": "Karmelicka", "check_date": "2025-10-24", "inscription": "Be Happy! Sweet art and illusion museum", "name": "Be Happy!", "opening_hours": "Mo-Th 10:00-19:00; Fr-Su 10:00-20:00", "shop": "confectionery"}}, {"type": "node", "id": 939768413, "lat": 50.0708136, "lon": 19.923562, "tags": {"addr:city": "Krak\u00f3w", "addr:housenumber": "16", "addr:street": "Kr\u00f3lewska", "check_date": "2025-06-09", "hairdresser": "barber", "internet_access": "no", "male": "yes", "name": "Per\u0142a Krakowska", "opening_hours": "Mo-Fr 09:00-20:00; Sa 09:00-16:00; Su 10:00-16:00", "payment:cash": "yes", "payment:credit_cards": "yes", "payment:debit_cards": "yes", "phone": "+48 739 607 201", "shop": "hairdresser", "wheelchair": "limited"}}, {"type": "node", "id": 974197826, "lat": 50.0714772, "lon": 19.9141668, "tags": {"brand": "Carrefour Express", "brand:wikidata": "Q2940190", "brand:wikipedia": "fr:Carrefour Express", "name": "Carrefour Express", "opening_hours": "Mo-Sa 07:00-22:00; Su 08:00-20:00", "operator": "Groupe Carrefour", "operator:wikidata": "Q3117359", "operator:wikipedia": "fr:Groupe Carrefour", "shop": "convenience"}}, {"type": "node", "id": 974197831, "lat": 50.0714289, "lon": 19.914977, "tags": {"brand": "\u017babka", "brand:wikidata": "Q2589061", "check_date": "2024-11-07", "check_date:opening_hours": "2024-11-07", "name": "\u017babka", "name:pl": "\u017babka", "name:uk": "\u0416\u0430\u0431\u043a\u0430", "opening_hours": "Mo-Sa 06:00-23:00; Su 09:00-21:00", "payment:mastercard": "yes", "payment:visa": "yes", "ref": "ZC181", "shop": "convenience", "website": "https://www.zabka.pl/znajdz-sklep/ID0C181-krakow-ul-kijowska-12-lok-lu-i/"}}, {"type": "node", "id": 1372035878, "lat": 50.067903, "lon": 19.9280108}, {"type": "node", "id": 1372035903, "lat": 50.0679827, "lon": 19.928176}, {"type": "node", "id": 1372035914, "lat": 50.0679219, "lon": 19.9280501}, {"type": "node", "id": 1415949187, "lat": 50.069111, "lon": 19.9304941, "tags": {"addr:city": "Krak\u00f3w", "addr:housenumber": "18a", "addr:postcode": "31-137", "addr:street": "Henryka Siemiradzkiego", "name": "U Moniki", "noname": "yes", "shop": "convenience"}}, {"type": "node", "id": 1415963644, "lat": 50.0709828, "lon": 19.9301734, "tags": {"addr:city": "Krak\u00f3w", "addr:country": "PL", "addr:housenumber": "40", "addr:postcode": "31-140", "addr:street": "\u0141obzowska", "contact:email": "krakow@mbike.pl", "name": "mbike", "opening_hours": "Mo-Fr 10:00-18:00; Sa 10:00-14:00", "phone": "+48 601 834 297", "shop": "bicycle", "website": "https://mbike.pl/"}}, {"type": "node", "id": 1415963646, "lat": 50.0701842, "lon": 19.932546, "tags": {"layer": "-1", "name": "Mad Bat Tattoo", "shop": "tattoo"}}, {"type": "node", "id": 1416390054, "lat": 50.0702178, "lon": 19.932662, "tags": {"addr:city": "Krak\u00f3w", "addr:country": "PL", "addr:housenumber": "2", "addr:postcode": "31-161", "addr:street": "Szlak", "contact:website": "http://www.serwiskomorek.pl/", "name": "KAEM Serwis GSM", "shop": "mobile_phone", "wheelchair": "no"}}, {"type": "node", "id": 1416603607, "lat": 50.0705075, "lon": 19.9332583, "tags": {"addr:city": "Krak\u00f3w", "addr:housenumber": "8", "addr:street": "Szlak", "name": "Edan Artyku\u0142y konserwatorskie", "opening_hours": "Mo-Fr 09:00-16:00", "shop": "general", "website": "https://edan.krakow.pl/"}}, {"type": "node", "id": 1642467401, "lat": 50.0715511, "lon": 19.9261589}, {"type": "node", "id": 1642467402, "lat": 50.0719148, "lon": 19.9242806, "tags": {"addr:city": "Krak\u00f3w", "addr:housenumber": "1", "addr:postcode": "30-074", "addr:street": "Kazimierza Wielkiego", "check_date": "2025-06-09", "internet_access": "no", "name": "Alpo", "opening_hours": "Mo-Sa 07:00-22:00; Su 10:00-20:00", "payment:cash": "yes", "payment:credit_cards": "yes", "payment:debit_cards": "yes", "shop": "supermarket", "wheelchair": "yes"}}, {"type": "node", "id": 1642467416, "lat": 50.0725067, "lon": 19.9288411, "tags": {"name": "Stragan", "shop": "greengrocer"}}, {"type": "node", "id": 1642472873, "lat": 50.0718501, "lon": 19.9295071, "tags": {"brand": "Ruch", "brand:wikidata": "Q1260314", "brand:wikipedia": "pl:Ruch (przedsi\u0119biorstwo)", "check_date:opening_hours": "2022-03-25", "disused:shop": "kiosk", "name": "Ruch", "opening_hours:signed": "no", "shop": "kiosk"}}, {"type": "node", "id": 1642484763, "lat": 50.0722234, "lon": 19.9323851, "tags": {"addr:city": "Krak\u00f3w", "addr:country": "PL", "addr:housenumber": "75", "addr:postcode": "31-158", "addr:street": "Krowoderska", "brand": "Carrefour Express", "brand:wikidata": "Q2940190", "brand:wikipedia": "fr:Carrefour Express", "check_date": "2025-12-15", "name": "Carrefour Express", "opening_hours": "Mo-Fr 07:00-22:00; Sa 09:00-17:00", "operator": "Groupe Carrefour", "operator:wikidata": "Q3117359", "operator:wikipedia": "fr:Groupe Carrefour", "shop": "convenience"}}, {"type": "node", "id": 1841319897, "lat": 50.0667478, "lon": 19.9223999, "tags": {"check_date": "2024-08-18", "name": "Buczek", "shop": "bakery"}}, {"type": "node", "id": 1862027344, "lat": 50.0665088, "lon": 19.9292946, "tags": {"brand": "Max Elektro", "brand:wikidata": "Q122941607", "check_date:opening_hours": "2024-06-09", "name": "Max Elektro", "opening_hours": "Mo-Fr 10:00-18:00; Sa 10:00-14:00", "shop": "electronics"}}, {"type": "node", "id": 1862180723, "lat": 50.0632603, "lon": 19.9279279, "tags": {"addr:housenumber": "30", "addr:street": "Krupnicza", "brand": "Awiteks", "brand:wikidata": "Q62054190", "check_date": "2026-01-12", "indoor_seating": "yes", "name": "Awiteks", "name:pl": "Awiteks", "opening_hours": "Mo-Fr 06:00-20:30; Sa 07:00-15:30; Su 10:00-18:00", "outdoor_seating": "no", "shop": "bakery", "wheelchair": "yes"}}, {"type": "node", "id": 1862650799, "lat": 50.066645, "lon": 19.9290919, "tags": {"check_date": "2023-11-18", "level": "0", "name": "Kocyk", "opening_hours": "24/7", "payment:credit_cards": "yes", "payment:debit_cards": "yes", "shop": "convenience", "wheelchair": "no"}}, {"type": "node", "id": 1862717372, "lat": 50.0635833, "lon": 19.9317457, "tags": {"addr:city": "Krak\u00f3w", "addr:country": "PL", "addr:housenumber": "3", "addr:street": "Krupnicza", "check_date": "2025-07-09", "check_date:opening_hours": "2024-09-04", "name:signed": "no", "opening_hours": "Mo-Fr 09:00-20:00; Sa 10:00-16:00", "shop": "stationery"}}, {"type": "node", "id": 1862780492, "lat": 50.0658837, "lon": 19.9279533, "tags": {"shop": "vacant"}}, {"type": "node", "id": 1875019710, "lat": 50.0739852, "lon": 19.9158532, "tags": {"check_date": "2026-01-16", "name": "Grabowski", "shop": "optician"}}, {"type": "node", "id": 1875046623, "lat": 50.0730574, "lon": 19.9143835, "tags": {"check_date": "2025-06-09", "check_date:opening_hours": "2024-11-11", "internet_access": "no", "name": "Czytanie", "opening_hours": "Mo-Fr 09:00-18:00; Sa 10:00-14:00", "shop": "books", "wheelchair": "no"}}, {"type": "node", "id": 1875046625, "lat": 50.0727175, "lon": 19.9180348, "tags": {"addr:city": "Krak\u00f3w", "addr:country": "PL", "addr:housenumber": "14", "addr:postcode": "30-052", "addr:street": "Nowowiejska", "name": "Frikolino", "opening_hours": "Mo-Fr 10:00-18:00; Sa 10:00-14:00", "shop": "toys"}}, {"type": "node", "id": 1875046629, "lat": 50.0725501, "lon": 19.917947, "tags": {"addr:city": "Krak\u00f3w", "addr:country": "PL", "addr:housenumber": "49", "addr:postcode": "30-052", "addr:street": "Kr\u00f3lewska", "brand": "Carrefour Express", "brand:wikidata": "Q2940190", "check_date:opening_hours": "2024-08-10", "name": "Carrefour Express", "opening_hours": "Mo-Sa 06:00-22:00; Su 08:00-22:00", "payment:credit_cards": "yes", "payment:debit_cards": "yes", "shop": "convenience", "website": "https://www.carrefour.pl", "wheelchair": "limited"}}, {"type": "node", "id": 1875304204, "lat": 50.0738466, "lon": 19.9174464, "tags": {"addr:city": "Krak\u00f3w", "addr:country": "PL", "addr:housenumber": "82A", "addr:street": "Kazimierza Wielkiego", "brand": "\u017babka", "brand:wikidata": "Q2589061", "brand:wikipedia": "pl:\u017babka (sie\u0107 sklep\u00f3w)", "name": "\u017babka", "name:pl": "\u017babka", "name:uk": "\u0416\u0430\u0431\u043a\u0430", "opening_hours": "06:00-23:00", "payment:blik": "yes", "payment:cash": "yes", "payment:coins": "yes", "payment:contactless": "yes", "payment:mastercard": "yes", "payment:visa": "yes", "shop": "convenience", "website": "https://zabka.pl/"}}, {"type": "node", "id": 1878175717, "lat": 50.0716346, "lon": 19.9198715, "tags": {"brand": "Lewiatan", "brand:wikidata": "Q11755396", "brand:wikipedia": "pl:Lewiatan (sie\u0107 handlowa)", "check_date": "2025-06-09", "internet_access": "no", "name": "Lewiatan", "opening_hours": "Mo-Fr 07:00-21:00; Sa 07:30-19:00", "shop": "convenience", "website": "https://www.lewiatan.pl/znajdz-sklep/lewiatan-krakow-krakow-krowodrza-krolewska-52", "wheelchair": "no"}}, {"type": "node", "id": 1878175742, "lat": 50.0730298, "lon": 19.9150711, "tags": {"indoor_seating": "no", "name": "Sekrety Piekarza", "outdoor_seating": "no", "shop": "bakery", "takeaway": "only"}}, {"type": "node", "id": 1878457316, "lat": 50.0732489, "lon": 19.9161691, "tags": {"addr:city": "Krak\u00f3w", "addr:country": "PL", "addr:housenumber": "55", "addr:street": "Kr\u00f3lewska", "brand": "Rossmann", "brand:wikidata": "Q316004", "brand:wikipedia": "pl:Rossmann", "name": "Rossmann", "opening_hours": "Mo-Sa 07:30-21:30; Su 09:00-20:30", "shop": "chemist", "website": "https://www.rossmann.pl/drogerie/Drogeria-Rossmann-krolewska-55,krakow,12,530"}}, {"type": "node", "id": 1878936775, "lat": 50.0721321, "lon": 19.9194945, "tags": {"addr:city": "Krak\u00f3w", "addr:country": "PL", "addr:housenumber": "45", "addr:street": "Kr\u00f3lewska", "brand": "Awiteks", "brand:wikidata": "Q62054190", "check_date": "2025-05-23", "name": "Awiteks", "opening_hours": "Mo-Fr 06:00-20:00; Sa 07:00-15:30", "shop": "bakery"}}, {"type": "node", "id": 1879715899, "lat": 50.072909, "lon": 19.9177473, "tags": {"name": "Gossip", "shop": "clothes"}}, {"type": "node", "id": 1879719183, "lat": 50.0740024, "lon": 19.9168635, "tags": {"name": "BBZ", "opening_hours": "Mo-Fr 08:30-21:30; Sa 10:00-15:00; Su 16:00-20:00", "shop": "copyshop"}}, {"type": "node", "id": 1879719188, "lat": 50.0740518, "lon": 19.9166599, "tags": {"name": "Trendy", "opening_hours": "Mo-Fr 09:00-20:00; Sa 09:00-17:00", "shop": "hairdresser"}}, {"type": "node", "id": 1879737814, "lat": 50.0723834, "lon": 19.916884, "tags": {"brand": "Lotto", "brand:wikidata": "Q132146478", "check_date": "2025-06-09", "internet_access": "no", "name": "Lotto", "opening_hours": "Mo-Su 08:15-19:45", "payment:cash": "yes", "payment:credit_cards": "yes", "payment:debit_cards": "yes", "shop": "lottery", "wheelchair": "no"}}, {"type": "node", "id": 1882892444, "lat": 50.0727488, "lon": 19.9151027, "tags": {"brand": "Awiteks", "brand:wikidata": "Q62054190", "name": "Awiteks", "opening_hours": "Mo-Fr 06:00-20:00", "shop": "bakery", "wheelchair": "no"}}, {"type": "node", "id": 1882892448, "lat": 50.0724804, "lon": 19.9165271, "tags": {"check_date": "2025-06-09", "internet_access": "no", "name": "Stek-Pol", "opening_hours": "Mo-Fr 08:00-18:00; Sa 08:00-15:00; Su off", "payment:cash": "yes", "payment:credit_cards": "yes", "payment:debit_cards": "yes", "phone": "+48 607 660 157", "shop": "butcher", "wheelchair": "yes"}}, {"type": "node", "id": 1885027038, "lat": 50.0739132, "lon": 19.918906, "tags": {"check_date": "2024-10-06", "shop": "vacant", "wheelchair": "yes"}}, {"type": "node", "id": 1885027039, "lat": 50.0729761, "lon": 19.9146957, "tags": {"check_date": "2025-06-09", "internet_access": "no", "noname": "yes", "opening_hours": "Mo-Fr 10:00-18:00; Sa 10:00-14:00", "payment:cash": "yes", "payment:credit_cards": "yes", "payment:debit_cards": "yes", "shop": "shoes", "wheelchair": "no"}}, {"type": "node", "id": 1885027040, "lat": 50.0727533, "lon": 19.9152744, "tags": {"check_date:opening_hours": "2022-07-30", "noname": "yes", "opening_hours:signed": "no", "shop": "greengrocer"}}, {"type": "node", "id": 1885718193, "lat": 50.0711199, "lon": 19.9165438, "tags": {"air_conditioning": "yes", "check_date": "2024-10-03", "check_date:opening_hours": "2024-10-03", "currency:PLN": "yes", "internet_access": "no", "name": "Buczek", "opening_hours": "Mo-Fr 06:15-19:00; Sa 06:15-16:00; Su 09:00-15:00", "payment:cash": "yes", "payment:coins": "yes", "payment:mastercard": "yes", "payment:visa": "yes", "shop": "bakery"}}, {"type": "node", "id": 1892027829, "lat": 50.0727963, "lon": 19.9206218, "tags": {"name": "budowlana Fert", "opening_hours": "Mo,We,Fr 12:00-16:00; Tu,Th 16:00-19:00; Sa 10:00-13:00", "shop": "books", "wheelchair": "no"}}, {"type": "node", "id": 1892027916, "lat": 50.071767, "lon": 19.9235212, "tags": {"brand": "\u017babka", "brand:wikidata": "Q2589061", "brand:wikipedia": "pl:\u017babka (sie\u0107 sklep\u00f3w)", "check_date": "2025-07-29", "name": "\u017babka", "name:pl": "\u017babka", "name:uk": "\u0416\u0430\u0431\u043a\u0430", "opening_hours": "Mo-Su 06:00-22:00", "payment:blik": "yes", "payment:cash": "yes", "payment:coins": "yes", "payment:contactless": "yes", "payment:mastercard": "yes", "payment:visa": "yes", "shop": "convenience", "website": "https://zabka.pl/"}}, {"type": "node", "id": 1905952844, "lat": 50.071647, "lon": 19.9114434, "tags": {"check_date": "2025-06-09", "check_date:opening_hours": "2022-10-29", "noname": "yes", "opening_hours:signed": "no", "shop": "cosmetics"}}, {"type": "node", "id": 1905952847, "lat": 50.0736967, "lon": 19.9179295, "tags": {"name": "Paw\u0142owska Beauty", "shop": "beauty"}}, {"type": "node", "id": 1905952851, "lat": 50.0737554, "lon": 19.9113145, "tags": {"check_date": "2025-06-09", "internet_access": "wlan", "internet_access:fee": "no", "name": "Fournil", "opening_hours": "Tu-Fr 07:00-18:00; Sa 07:30-13:00", "payment:cash": "yes", "payment:credit_cards": "yes", "payment:debit_cards": "yes", "shop": "bakery", "wheelchair": "limited"}}, {"type": "node", "id": 1905952859, "lat": 50.0738373, "lon": 19.9110011, "tags": {"addr:city": "Krak\u00f3w", "addr:floor": "0", "addr:housenumber": "94", "addr:street": "Kr\u00f3lewska", "brand": "Awiteks", "brand:wikidata": "Q62054190", "check_date": "2025-06-25", "internet_access": "no", "level": "0", "name": "Awiteks", "opening_hours": "Mo-Fr 06:00-20:00; Sa 07:00-15:00", "payment:cash": "yes", "payment:credit_cards": "yes", "payment:debit_cards": "yes", "phone": "+48 12 647 52 22", "shop": "bakery", "wheelchair": "no"}}, {"type": "node", "id": 1908967442, "lat": 50.070502, "lon": 19.9235154, "tags": {"check_date:opening_hours": "2023-07-09", "name": "Cukiernia \u015aliwa", "opening_hours": "Mo-Fr 08:00-18:00, Sa 08:00-17:00, Su 09:00-15:00", "shop": "pastry"}}, {"type": "node", "id": 1908967454, "lat": 50.0738624, "lon": 19.9108982, "tags": {"check_date": "2025-06-09", "internet_access": "no", "name": "Artus", "opening_hours": "Mo-Fr 10:00-18:00; Sa 10:00-14:00", "payment:cash": "yes", "payment:credit_cards": "yes", "payment:debit_cards": "yes", "second_hand": "only", "shop": "clothes", "wheelchair": "limited"}}, {"type": "node", "id": 1909885173, "lat": 50.0741463, "lon": 19.9159222, "tags": {"shop": "vacant"}}, {"type": "node", "id": 1909896166, "lat": 50.0715085, "lon": 19.91325, "tags": {"check_date:opening_hours": "2023-11-27", "name": "Anio\u0142y w kwiatach u Ziomk\u00f3w", "opening_hours": "Mo-Fr 09:00-17:00; Sa 09:00-15:00", "shop": "florist", "wheelchair": "limited"}}, {"type": "node", "id": 1910666400, "lat": 50.0714534, "lon": 19.9246944, "tags": {"name": "Exclusive", "shop": "beauty"}}, {"type": "node", "id": 1914358909, "lat": 50.071544, "lon": 19.9107159, "tags": {"check_date": "2025-06-09", "check_date:opening_hours": "2023-11-27", "name": "Kr\u00f3lewska", "opening_hours": "Mo-Fr 06:00-17:00; Sa 06:00-14:00", "shop": "confectionery", "website": "http://www.krolewska.org/kontakt/", "wheelchair": "limited"}}, {"type": "node", "id": 1917767026, "lat": 50.0658275, "lon": 19.9343651, "tags": {"addr:city": "Krak\u00f3w", "addr:country": "PL", "addr:housenumber": "2", "addr:postcode": "31-140", "addr:street": "\u0141obzowska", "brand": "\u017babka", "brand:wikidata": "Q2589061", "brand:wikipedia": "pl:\u017babka (sie\u0107 sklep\u00f3w)", "name": "\u017babka", "name:pl": "\u017babka", "name:uk": "\u0416\u0430\u0431\u043a\u0430", "opening_hours": "Mo-Sa 06:00-23:00; Su 10:00-23:00", "payment:blik": "yes", "payment:cash": "yes", "payment:coins": "yes", "payment:contactless": "yes", "payment:mastercard": "yes", "payment:visa": "yes", "shop": "convenience", "website": "https://zabka.pl/", "wheelchair": "no"}}, {"type": "node", "id": 1918052580, "lat": 50.0645586, "lon": 19.9322233, "tags": {"addr:city": "Krak\u00f3w", "addr:country": "PL", "addr:housenumber": "15", "addr:postcode": "31-133", "addr:street": "Karmelicka", "check_date:opening_hours": "2020-12-21", "name": "Calzemimi", "opening_hours": "Mo-Fr 10:00-18:00; Sa 10:00-15:00", "shop": "clothes"}}, {"type": "node", "id": 1918052647, "lat": 50.0658429, "lon": 19.9301138, "tags": {"addr:country": "PL", "addr:housenumber": "30", "addr:postcode": "31-128", "addr:street": "Karmelicka", "email": "serwisigsm@gmail.com", "name": "Serwis IGSM", "opening_hours": "Mo-Fr 10:00-18:00", "phone": "+48791465905", "shop": "mobile_phone", "website": "http://www.I-gsm.com.pl"}}, {"type": "node", "id": 1919045676, "lat": 50.0730656, "lon": 19.9142845, "tags": {"check_date:opening_hours": "2023-07-11", "noname": "yes", "opening_hours": "Mo-Fr 07:00-18:00; Sa 08:00-14:00", "shop": "kiosk"}}, {"type": "node", "id": 1919370568, "lat": 50.0577303, "lon": 19.9265337, "tags": {"addr:city": "Krak\u00f3w", "addr:country": "PL", "addr:housenumber": "11C", "addr:postcode": "31-111", "addr:street": "Aleja Zygmunta Krasi\u0144skiego", "entrance": "yes", "name": "HB Cz\u0119\u015bci AGD", "phone": "+48 12 421 57 27", "shop": "radiotechnics", "website": "http://hb-agd.pl/"}}, {"type": "node", "id": 1970767339, "lat": 50.071442, "lon": 19.913603, "tags": {"shop": "clothes"}}, {"type": "node", "id": 1970767342, "lat": 50.0714197, "lon": 19.9138015, "tags": {"noname": "yes", "opening_hours": "Mo-Fr 09:00-18:00; Sa 09:00-15:00", "shop": "greengrocer"}}, {"type": "node", "id": 2000515371, "lat": 50.0607202, "lon": 19.9350376, "tags": {"air_conditioning": "yes", "brand": "Carrefour Express", "brand:wikidata": "Q2940190", "brand:wikipedia": "fr:Carrefour Express", "level": "0;0.5", "name": "Carrefour Express", "opening_hours": "24/7", "operator": "Groupe Carrefour", "operator:wikidata": "Q3117359", "operator:wikipedia": "fr:Groupe Carrefour", "shop": "convenience", "start_date": "2024", "wheelchair": "limited"}}, {"type": "node", "id": 2332361068, "lat": 50.0733412, "lon": 19.934936, "tags": {"noname": "yes", "shop": "kiosk", "wheelchair": "limited"}}, {"type": "node", "id": 2385713641, "lat": 50.0717277, "lon": 19.9333359, "tags": {"addr:city": "Krak\u00f3w", "addr:housenumber": "67", "addr:postcode": "31-158", "addr:street": "Krowoderska", "name": "AMT Kostecki", "opening_hours": "Mo-Fr 10:00-18:00; Sa 09:00-14:00", "shop": "car_parts", "website": "http://www.amt-kostecki.pl"}}, {"type": "node", "id": 2385713642, "lat": 50.0716805, "lon": 19.9334095, "tags": {"addr:city": "Krak\u00f3w", "addr:country": "PL", "addr:housenumber": "67", "addr:postcode": "31-158", "addr:street": "Krowoderska", "name": "Atena", "opening_hours": "Mo-Fr 09:00-17:00; Sa 10:00-14:00", "shop": "beauty", "website": "http://www.atena-krakow.pl/"}}, {"type": "node", "id": 2385713644, "lat": 50.0723428, "lon": 19.9321789, "tags": {"addr:city": "Krak\u00f3w", "addr:country": "PL", "addr:housenumber": "77", "addr:postcode": "31-158", "addr:street": "Krowoderska", "name": "Marcela", "opening_hours": "Mo,We-Fr 09:00-17:00; Sa 08:00-12:00", "shop": "hairdresser"}}, {"type": "node", "id": 2389966920, "lat": 50.0715247, "lon": 19.9337082, "tags": {"addr:city": "Krak\u00f3w", "addr:housenumber": "65A", "addr:postcode": "32-158", "addr:street": "Krowoderska", "brand": "Garmin", "electronics": "gps", "name": "GPS-y.pl", "opening_hours": "Mo-Fr 10:00-18:00; Sa 10:00-14:00", "phone": "+48 12 623 08 30", "shop": "electronics", "website": "http://gps-y.pl/"}}, {"type": "node", "id": 2389966921, "lat": 50.0708186, "lon": 19.9348956, "tags": {"name": "Maciek", "opening_hours": "Mo-Sa 07:00-22:00; Su 10:00-22:00", "shop": "convenience"}}, {"type": "node", "id": 2389966929, "lat": 50.0709739, "lon": 19.9346879, "tags": {"brand": "\u017babka", "brand:wikidata": "Q2589061", "brand:wikipedia": "pl:\u017babka (sie\u0107 sklep\u00f3w)", "name": "\u017babka", "name:pl": "\u017babka", "name:uk": "\u0416\u0430\u0431\u043a\u0430", "opening_hours": "Mo-Su 06:00-23:00", "payment:blik": "yes", "payment:cash": "yes", "payment:coins": "yes", "payment:contactless": "yes", "payment:mastercard": "yes", "payment:visa": "yes", "shop": "convenience", "website": "https://zabka.pl/"}}, {"type": "node", "id": 2401467596, "lat": 50.0705382, "lon": 19.9179251, "tags": {"check_date:opening_hours": "2025-03-27", "level": "-1", "name": "Tania odzie\u017c i rzeczy ciekawe", "opening_hours": "Mo-Fr 10:00-17:00", "second_hand": "only", "shop": "clothes"}}, {"type": "node", "id": 2417497433, "lat": 50.0738099, "lon": 19.9290493}, {"type": "node", "id": 2417497441, "lat": 50.0738165, "lon": 19.9290118}, {"type": "node", "id": 2417497449, "lat": 50.0738241, "lon": 19.9290905}, {"type": "node", "id": 2417497460, "lat": 50.0738289, "lon": 19.9290569}, {"type": "node", "id": 2417497463, "lat": 50.0738301, "lon": 19.9290161}, {"type": "node", "id": 2417497473, "lat": 50.0738348, "lon": 19.9289884}, {"type": "node", "id": 2417497475, "lat": 50.0738356, "lon": 19.9291162}, {"type": "node", "id": 2417497538, "lat": 50.0738621, "lon": 19.928999}, {"type": "node", "id": 2417497545, "lat": 50.0738651, "lon": 19.9289351}, {"type": "node", "id": 2417497556, "lat": 50.0738712, "lon": 19.9291265}, {"type": "node", "id": 2417497558, "lat": 50.0738713, "lon": 19.9289367}, {"type": "node", "id": 2417497563, "lat": 50.0738729, "lon": 19.9288935}, {"type": "node", "id": 2417497572, "lat": 50.073879, "lon": 19.928851}, {"type": "node", "id": 2417497578, "lat": 50.0738832, "lon": 19.9288843}, {"type": "node", "id": 2417497585, "lat": 50.073886, "lon": 19.9288128}, {"type": "node", "id": 2417497586, "lat": 50.0738864, "lon": 19.9288672}, {"type": "node", "id": 2417497591, "lat": 50.0738906, "lon": 19.9288144}, {"type": "node", "id": 2417497610, "lat": 50.0738999, "lon": 19.92875}, {"type": "node", "id": 2417497635, "lat": 50.0739197, "lon": 19.9290582}, {"type": "node", "id": 2417497648, "lat": 50.0739256, "lon": 19.9290749}, {"type": "node", "id": 2417497662, "lat": 50.0739308, "lon": 19.9287614}, {"type": "node", "id": 2417497665, "lat": 50.0739329, "lon": 19.9288116}, {"type": "node", "id": 2417497676, "lat": 50.0739391, "lon": 19.9288278}, {"type": "node", "id": 2417497693, "lat": 50.0739469, "lon": 19.9287971}, {"type": "node", "id": 2417497719, "lat": 50.0739603, "lon": 19.929016}, {"type": "node", "id": 2417497734, "lat": 50.0739683, "lon": 19.9287972}, {"type": "node", "id": 2417497778, "lat": 50.0739851, "lon": 19.9288379}, {"type": "node", "id": 2417498050, "lat": 50.0741156, "lon": 19.9119642}, {"type": "node", "id": 2417498080, "lat": 50.0741312, "lon": 19.9118744}, {"type": "node", "id": 2417498119, "lat": 50.0741486, "lon": 19.9117954}, {"type": "node", "id": 2417498159, "lat": 50.0741727, "lon": 19.911709}, {"type": "node", "id": 2417498162, "lat": 50.0741721, "lon": 19.9119947}, {"type": "node", "id": 2417498164, "lat": 50.0741637, "lon": 19.9120269}, {"type": "node", "id": 2417498258, "lat": 50.0742298, "lon": 19.9120202}, {"type": "node", "id": 2417498260, "lat": 50.0742282, "lon": 19.9117458}, {"type": "node", "id": 2417498263, "lat": 50.0742292, "lon": 19.9117408}, {"type": "node", "id": 2417498266, "lat": 50.0742343, "lon": 19.9119982}, {"type": "node", "id": 2417498276, "lat": 50.07424, "lon": 19.912023}, {"type": "node", "id": 2417498285, "lat": 50.0742445, "lon": 19.912004}, {"type": "node", "id": 2417498290, "lat": 50.0742488, "lon": 19.9119348}, {"type": "node", "id": 2417498302, "lat": 50.0742574, "lon": 19.9120327}, {"type": "node", "id": 2417498342, "lat": 50.0742773, "lon": 19.9119505}, {"type": "node", "id": 2417498399, "lat": 50.0742832, "lon": 19.9117772}, {"type": "node", "id": 2429269447, "lat": 50.0708786, "lon": 19.9343047, "tags": {"addr:city": "Krak\u00f3w", "addr:country": "PL", "addr:housenumber": "46", "addr:postcode": "31-158", "addr:street": "Krowoderska", "name": "L'art studio", "opening_hours": "Mo-Fr 09:00-20:00; Sa 09:00-15:00", "shop": "hairdresser", "website": "http://www.lartstudio.pl/"}}, {"type": "node", "id": 2429269449, "lat": 50.0706532, "lon": 19.9346061, "tags": {"addr:city": "Krak\u00f3w", "addr:country": "PL", "addr:housenumber": "44", "addr:postcode": "31-142", "addr:street": "Krowoderska", "name": "Margo", "opening_hours:signed": "no", "shop": "hairdresser"}}, {"type": "node", "id": 2429269453, "lat": 50.0706936, "lon": 19.9345361, "tags": {"addr:city": "Krak\u00f3w", "addr:country": "PL", "addr:housenumber": "13", "addr:postcode": "31-161", "addr:street": "Szlak", "name": "Piekarnia Pod Telegrafem", "opening_hours": "Mo-Fr 06:30-18:30; Sa 07:00-14:00", "shop": "bakery"}}, {"type": "node", "id": 2429305366, "lat": 50.0690556, "lon": 19.9268511, "tags": {"addr:city": "Krak\u00f3w", "addr:country": "PL", "addr:housenumber": "1", "addr:postcode": "31-159", "addr:street": "Aleja Juliusza S\u0142owackiego", "check_date:opening_hours": "2024-09-19", "name": "Alejestudio", "opening_hours": "Mo-Fr 09:00-17:00; Sa 10:00-15:00", "shop": "copyshop", "website": "https://www.alejestudio.pl/"}}, {"type": "node", "id": 2429305370, "lat": 50.0711234, "lon": 19.9337951, "tags": {"addr:city": "Krak\u00f3w", "addr:country": "PL", "addr:housenumber": "52", "addr:postcode": "31-158", "addr:street": "Krowoderska", "name": "Thai Sun", "opening_hours": "Mo-Su 12:00-21:00", "shop": "massage"}}, {"type": "node", "id": 2429305373, "lat": 50.072456, "lon": 19.9318793, "tags": {"addr:city": "Krak\u00f3w", "addr:country": "PL", "addr:housenumber": "79", "addr:postcode": "31-158", "addr:street": "Krowoderska", "brand": "TEXTILE house", "brand:wikidata": "Q77878002", "check_date": "2025-12-15", "name": "Textile House", "opening_hours": "Mo-Fr 09:00-19:00; Sa 09:00-15:00", "second_hand": "only", "shop": "clothes", "website": "https://www.textilehouse.com.pl/sklepy"}}, {"type": "node", "id": 2454258975, "lat": 50.0628356, "lon": 19.935425, "tags": {"addr:city": "Krak\u00f3w", "addr:housenumber": "6", "addr:street": "Jagiello\u0144ska", "name": "Sklep Podr\u00f3\u017cnika", "opening_hours": "Mo-Fr 11:00-19:00; Sa 10:00-13:30", "phone": "+48 883 603 045", "shop": "books", "website": "https://sp.com.pl/"}}, {"type": "node", "id": 2454258989, "lat": 50.063698, "lon": 19.9296496, "tags": {"addr:city": "Krak\u00f3w", "addr:housenumber": "2", "addr:street": "J\u00f3zefa Szujskiego", "name": "Sklep Podr\u00f3\u017cnika", "opening_hours": "Mo-Fr 11:00-19:00; Sa 10:00-14:00", "phone": "+48 12 421 89 22", "shop": "sports", "website": "https://sp.com.pl/"}}, {"type": "node", "id": 2454259010, "lat": 50.0666791, "lon": 19.9226255, "tags": {"check_date": "2025-12-21", "name:signed": "no", "shop": "copyshop"}}, {"type": "node", "id": 2454259016, "lat": 50.0667735, "lon": 19.9221634, "tags": {"brand": "Rossmann", "brand:wikidata": "Q316004", "brand:wikipedia": "pl:Rossmann", "check_date": "2025-04-02", "name": "Rossmann", "shop": "chemist", "website": "https://www.rossmann.pl/drogerie/Drogeria-Rossmann-szymanowskiego-14,krakow,12,741"}}, {"type": "node", "id": 2454259019, "lat": 50.0668603, "lon": 19.9214243, "tags": {"check_date:opening_hours": "2021-03-26", "name": "Centrum Druku", "opening_hours": "Mo-Fr 09:00-18:00", "shop": "copyshop", "website": "https://www.centrumdruku.com.pl/onas.cd?kontakt&ref=cd_menu"}}, {"type": "node", "id": 2454259021, "lat": 50.0668916, "lon": 19.9201773, "tags": {"name": "Persocomic", "opening_hours": "Mo-Su 09:00-17:00", "payment:credit_cards": "yes", "payment:debit_cards": "yes", "shop": "stationery", "wheelchair": "limited"}}, {"type": "node", "id": 2454259024, "lat": 50.0672289, "lon": 19.9205229, "tags": {"check_date": "2025-12-01", "name": "Get Ready", "shop": "beauty"}}, {"type": "node", "id": 2454259029, "lat": 50.0677973, "lon": 19.9179046, "tags": {"addr:city": "Krak\u00f3w", "addr:housenumber": "73F", "addr:postcode": "30-049", "addr:street": "Czarnowiejska", "brand": "Stokrotka Express", "brand:wikidata": "Q110801119", "name": "Stokrotka Express", "opening_hours": "Mo-Fr 06:00-23:45; Sa 06:00-23:40; PH off", "shop": "convenience", "website": "https://stokrotka.pl/nasze-sklepy/krakow-ul-czarnowiejska-73f-5731.html"}}, {"type": "node", "id": 2454259036, "lat": 50.0677516, "lon": 19.9173773, "tags": {"check_date": "2025-12-01", "name": "Pongo", "shop": "hairdresser", "wheelchair": "no"}}, {"type": "node", "id": 2454259038, "lat": 50.0674061, "lon": 19.914623, "tags": {"check_date:opening_hours": "2024-03-13", "computer:repair": "yes", "contact:email": "sklep@amso.pl", "contact:facebook": "https://www.facebook.com/AMSO-327716091110182", "contact:phone": "+48 12 306 71 35", "contact:website": "https://amso.pl/", "name": "AMSO", "opening_hours": "Mo-Fr 10:00-18:00; Sa 10:00-14:00", "payment:credit_cards": "yes", "payment:debit_cards": "yes", "shop": "computer", "wheelchair": "no"}}, {"type": "node", "id": 2552292718, "lat": 50.0675183, "lon": 19.9131986, "tags": {"addr:city": "Krak\u00f3w", "addr:housenumber": "10", "addr:street": "Kawiory", "check_date": "2025-06-09", "name:signed": "no", "opening_hours": "Mo-Fr 07:30-15:30", "payment:credit_cards": "yes", "payment:debit_cards": "yes", "shop": "copyshop", "wheelchair": "no"}}, {"type": "node", "id": 2611470249, "lat": 50.0730538, "lon": 19.9347641, "tags": {"female": "yes", "male": "yes", "name": "Fryzjer damsko-m\u0119ski", "opening_hours": "Mo-Fr 08:30-18:00, Sa 08:00-14:00", "shop": "hairdresser"}}, {"type": "node", "id": 2611470280, "lat": 50.0729693, "lon": 19.9348242, "tags": {"name": "Sekret", "shop": "clothes"}}, {"type": "node", "id": 2611470283, "lat": 50.0731846, "lon": 19.9346452, "tags": {"name": "Piekarnia Z\u0142oty K\u0142os", "opening_hours": "Mo-Fr 06:30-18:00, Sa 07:00-13:00", "shop": "bakery", "wheelchair": "limited"}}, {"type": "node", "id": 2611470287, "lat": 50.0731233, "lon": 19.9345551, "tags": {"addr:housenumber": "86/4", "addr:street": "Dluga", "name": "Szubryt", "opening_hours": "Mo 09:00-18:00, Tu-Fr 08:00-18:00, Sa 08:00-14:00", "phone": "+48664055416", "shop": "butcher", "website": "https://www.szubryt.pl", "wheelchair": "limited"}}, {"type": "node", "id": 2624917134, "lat": 50.0698288, "lon": 19.9205192, "tags": {"brand": "\u017babka", "brand:wikidata": "Q2589061", "brand:wikipedia": "pl:\u017babka (sie\u0107 sklep\u00f3w)", "name": "\u017babka", "name:pl": "\u017babka", "name:uk": "\u0416\u0430\u0431\u043a\u0430", "opening_hours": "Su 09:00-21:00; Mo-Sa 06:00-22:00", "payment:blik": "yes", "payment:cash": "yes", "payment:coins": "yes", "payment:contactless": "yes", "payment:mastercard": "yes", "payment:visa": "yes", "ref": "Z6161", "shop": "convenience", "website": "https://www.zabka.pl/znajdz-sklep/ID06161-krakow-ul-juliusza-lea-12b-lok-lu1-i-m1/"}}, {"type": "node", "id": 2700983451, "lat": 50.0608736, "lon": 19.9273071, "tags": {"check_date:opening_hours": "2025-06-21", "name": "Samarytanka", "opening_hours": "Mo-Fr 09:00-17:00", "shop": "medical_supply", "website": "https://samarytanka.com.pl/"}}, {"type": "node", "id": 2720625274, "lat": 50.0695074, "lon": 19.9236889, "tags": {"addr:housenumber": "5", "addr:postcode": "30-046", "addr:street": "Juliusza Lea", "brand": "abc", "brand:wikidata": "Q11683985", "name": "abc", "opening_hours": "Mo-Sa 07:00-21:00; Su 10:00-20:00", "shop": "convenience"}}, {"type": "node", "id": 2855481627, "lat": 50.0675383, "lon": 19.9130892, "tags": {"brand": "Awiteks", "brand:wikidata": "Q62054190", "indoor_seating": "yes", "name": "Awiteks", "opening_hours": "Mo-Fr 06:00-20:00", "outdoor_seating": "no", "payment:credit_cards": "yes", "payment:debit_cards": "yes", "shop": "bakery", "wheelchair": "no"}}, {"type": "node", "id": 2992128939, "lat": 50.060021, "lon": 19.9345683, "tags": {"check_date": "2025-01-01", "denomination": "roman_catholic", "name": "Ksi\u0119garnia \u015awi\u0119tego Stanis\u0142awa", "opening_hours": "Mo-Fr 10:00-18:00; Sa 09:00-14:00", "religion": "christian", "shop": "books", "wheelchair": "limited"}}, {"type": "node", "id": 3035221837, "lat": 50.0636934, "lon": 19.9330336, "tags": {"brand": "Rossmann", "brand:wikidata": "Q316004", "name": "Rossmann", "shop": "chemist", "source": "survey", "website": "https://www.rossmann.pl/drogerie/Drogeria-Rossmann-dunajewskiego-1,krakow,12,4"}}, {"type": "node", "id": 3036639036, "lat": 50.0628064, "lon": 19.9275447, "tags": {"brand": "\u017babka", "brand:wikidata": "Q2589061", "brand:wikipedia": "pl:\u017babka (sie\u0107 sklep\u00f3w)", "name": "\u017babka", "name:pl": "\u017babka", "name:uk": "\u0416\u0430\u0431\u043a\u0430", "opening_hours": "Mo-Sa 06:00-23:00; Su 09:00-21:00", "payment:blik": "yes", "payment:cash": "yes", "payment:coins": "yes", "payment:contactless": "yes", "payment:mastercard": "yes", "payment:visa": "yes", "shop": "convenience", "website": "https://zabka.pl/", "wheelchair": "no"}}, {"type": "node", "id": 3036696421, "lat": 50.0639676, "lon": 19.9273348, "tags": {"brand": "\u017babka", "brand:wikidata": "Q2589061", "brand:wikipedia": "pl:\u017babka (sie\u0107 sklep\u00f3w)", "name": "\u017babka", "name:pl": "\u017babka", "name:uk": "\u0416\u0430\u0431\u043a\u0430", "opening_hours": "Mo-Sa 06:00-23:00; Su 10:00-22:00", "payment:blik": "yes", "payment:cash": "yes", "payment:coins": "yes", "payment:contactless": "yes", "payment:mastercard": "yes", "payment:visa": "yes", "shop": "convenience", "website": "https://zabka.pl/"}}, {"type": "node", "id": 3037092837, "lat": 50.0629616, "lon": 19.9264253, "tags": {"addr:housenumber": "2", "addr:street": "Skarbowa", "brand": "Lewiatan", "brand:wikidata": "Q11755396", "brand:wikipedia": "pl:Lewiatan (sie\u0107 handlowa)", "name": "Lewiatan", "opening_hours": "Mo-Fr 06:30-21:30; Sa 07:00-20:00", "payment:debit_cards": "yes", "shop": "convenience", "website": "https://www.lewiatan.pl/znajdz-sklep/lewiatan-krakow-ul-skarbowa-2"}}, {"type": "node", "id": 3037227146, "lat": 50.0636374, "lon": 19.9280252, "tags": {"check_date:opening_hours": "2025-03-30", "name": "Karawan", "opening_hours": "Mo-Fr 08:00-15:00; Sa 08:00-13:00", "shop": "funeral_directors", "wheelchair": "yes"}}, {"type": "node", "id": 3037268299, "lat": 50.0635016, "lon": 19.927799}, {"type": "node", "id": 3037268300, "lat": 50.0635085, "lon": 19.9278222}, {"type": "node", "id": 3037268301, "lat": 50.0635117, "lon": 19.9277606}, {"type": "node", "id": 3037268302, "lat": 50.0635271, "lon": 19.9277515}, {"type": "node", "id": 3037268303, "lat": 50.0635318, "lon": 19.9278388}, {"type": "node", "id": 3037268304, "lat": 50.0635474, "lon": 19.9278284}, {"type": "node", "id": 3037268306, "lat": 50.063551, "lon": 19.9277674}, {"type": "node", "id": 3037268307, "lat": 50.0635575, "lon": 19.9277916}, {"type": "node", "id": 3090332487, "lat": 50.060399, "lon": 19.9347357, "tags": {"shop": "vacant"}}, {"type": "node", "id": 3176873642, "lat": 50.0627593, "lon": 19.9341992, "tags": {"brand": "\u017babka", "brand:wikidata": "Q2589061", "brand:wikipedia": "pl:\u017babka (sie\u0107 sklep\u00f3w)", "check_date": "2024-06-10", "name": "\u017babka", "name:pl": "\u017babka", "name:uk": "\u0416\u0430\u0431\u043a\u0430", "opening_hours": "24/7", "payment:blik": "yes", "payment:cash": "yes", "payment:coins": "yes", "payment:contactless": "yes", "payment:mastercard": "yes", "payment:visa": "yes", "shop": "convenience", "website": "https://zabka.pl/"}}, {"type": "node", "id": 3259601072, "lat": 50.0605962, "lon": 19.9209976, "tags": {"addr:city": "Krak\u00f3w", "addr:housenumber": "2", "addr:postcode": "30-063", "addr:street": "Oleandry", "name": "SportTiw.pl", "note": "Stroje sportowe, hal\u00f3wki i korki - wszystko dla graczy i fan\u00f3w pi\u0142ki no\u017cnej.", "shop": "sports", "website": "https://sporttiw.pl/"}}, {"type": "node", "id": 3339879489, "lat": 50.0720789, "lon": 19.9356178, "tags": {"name": "Galeria Lagos", "opening_hours": "Mo-Fr 10:00-18:00; Sa 10:00-14:00", "phone": "+48 698 095 986", "shop": "jewelry", "website": "https://galerialagos.pl/"}}, {"type": "node", "id": 3368741951, "lat": 50.0639772, "lon": 19.9322113, "tags": {"brand": "Carrefour Express", "brand:wikidata": "Q2940190", "brand:wikipedia": "fr:Carrefour Express", "name": "Carrefour Express", "opening_hours": "24/7", "operator": "Groupe Carrefour", "operator:wikidata": "Q3117359", "operator:wikipedia": "fr:Groupe Carrefour", "shop": "convenience", "wheelchair": "no"}}, {"type": "node", "id": 3368748888, "lat": 50.0639414, "lon": 19.9326714, "tags": {"name": "Suempol", "opening_hours": "Mo-Fr 09:00-18:00; Sa 09:00-15:00; Su off", "shop": "seafood"}}, {"type": "node", "id": 3373626715, "lat": 50.0669592, "lon": 19.928759, "tags": {"brand": "Awiteks", "brand:wikidata": "Q62054190", "indoor_seating": "yes", "level": "0", "name": "Awiteks", "opening_hours": "Mo-Fr 06:00-20:00", "outdoor_seating": "no", "shop": "bakery", "wheelchair": "no"}}, {"type": "node", "id": 3373626717, "lat": 50.0678929, "lon": 19.9277033, "tags": {"check_date:opening_hours": "2024-06-10", "name": "Pawlak", "opening_hours": "Mo-Fr 06:00-17:30; Sa 06:00-12:30; Su off", "shop": "bakery"}}, {"type": "node", "id": 3373626721, "lat": 50.0668233, "lon": 19.9293664, "tags": {"check_date:opening_hours": "2022-03-24", "level": "0", "name": "Steskal", "opening_hours": "Mo-Fr 06:30-18:00; Sa 08:00-14:00; Su 09:00-15:00", "shop": "bakery", "wheelchair": "no"}}, {"type": "node", "id": 3474979593, "lat": 50.0679743, "lon": 19.9183727, "tags": {"addr:city": "Krak\u00f3w", "addr:country": "PL", "addr:housenumber": "33", "addr:postcode": "30-049", "addr:street": "Fryderyka Chopina", "brand": "\u017babka", "brand:wikidata": "Q2589061", "brand:wikipedia": "pl:\u017babka (sie\u0107 sklep\u00f3w)", "name": "\u017babka", "name:pl": "\u017babka", "name:uk": "\u0416\u0430\u0431\u043a\u0430", "opening_hours": "Mo-Sa 06:00-23:00; Su,PH 08:00-23:00", "payment:blik": "yes", "payment:cash": "yes", "payment:coins": "yes", "payment:contactless": "yes", "payment:mastercard": "yes", "payment:visa": "yes", "phone": "+48 34 377 00 03", "shop": "convenience", "website": "https://zabka.pl/", "wheelchair": "limited"}}, {"type": "node", "id": 3528742063, "lat": 50.0727721, "lon": 19.9180644, "tags": {"name": "Torebki, torebki...", "opening_hours": "Mo-Fr 11:00-17:00; Sa 10:00-14:00", "shop": "bag"}}, {"type": "node", "id": 3528742067, "lat": 50.0729497, "lon": 19.917834, "tags": {"craft": "key_cutter", "name:signed": "no", "opening_hours": "Mo-Fr 10:00-18:00", "shop": "locksmith"}}, {"type": "node", "id": 3528742069, "lat": 50.0731097, "lon": 19.917934, "tags": {"check_date:opening_hours": "2022-11-10", "name:signed": "no", "opening_hours": "Mo-Fr 10:00-18:00; Sa 10:00-14:00", "shop": "tailor"}}, {"type": "node", "id": 3528742070, "lat": 50.07323, "lon": 19.9180116, "tags": {"name:signed": "no", "opening_hours": "Mo-Fr 11:00-19:00; Sa 11:00-15:00", "shop": "second_hand"}}, {"type": "node", "id": 3528742072, "lat": 50.0733355, "lon": 19.9180875, "tags": {"check_date:opening_hours": "2022-07-19", "music": "vinyl", "name": "Vinylmojapasja.pl", "opening_hours": "Mo-Fr 12:00-20:00; Sa 12:00-18:00", "opening_hours:signed": "no", "shop": "music", "website": "http://winylmojapasja.pl", "wheelchair": "no"}}, {"type": "node", "id": 3528742085, "lat": 50.0739259, "lon": 19.9172436, "tags": {"shop": "yes"}}, {"type": "node", "id": 3649039073, "lat": 50.0633725, "lon": 19.9324675, "tags": {"addr:city": "Krak\u00f3w", "addr:housenumber": "6", "addr:postcode": "31-118", "addr:street": "Podwale", "name": "Elefant", "opening_hours": "Mo-Fr 10:00-18:00; Sa 10:00-14:00", "phone": "+48 12 422 67 41", "shop": "department_store"}}, {"type": "node", "id": 3649039079, "lat": 50.0631993, "lon": 19.9324505, "tags": {"addr:city": "Krak\u00f3w", "addr:housenumber": "6", "addr:postcode": "31-118", "addr:street": "Podwale", "name": "G\u0142\u00f3wna Ksi\u0119garnia Naukowa", "opening_hours": "Mo-Fr 09:00-20:00; Sa 10:00-18:00", "operator": "GKN", "payment:credit_cards": "yes", "payment:debit_cards": "yes", "phone": "+48 12 422 37 17; +48 12 347 61 62", "shop": "books", "website": "https://gkn.pl/", "wheelchair": "no"}}, {"type": "node", "id": 3649039080, "lat": 50.0632855, "lon": 19.9325467, "tags": {"addr:city": "Krak\u00f3w", "addr:housenumber": "7", "addr:postcode": "31-118", "addr:street": "Podwale", "check_date:opening_hours": "2024-06-11", "name": "Contempo", "opening_hours": "Mo-Fr 10:00-19:00; Sa 10:00-14:00", "phone": "+48 12 421 07 66", "shop": "optician", "wheelchair": "no"}}, {"type": "node", "id": 3656292425, "lat": 50.0667928, "lon": 19.9294079, "tags": {"check_date": "2023-09-15", "name": "Ciasteczko", "opening_hours:signed": "no", "shop": "pastry"}}, {"type": "node", "id": 3656292427, "lat": 50.0666671, "lon": 19.9295523, "tags": {"check_date": "2025-04-19", "check_date:opening_hours": "2025-04-19", "name": "Podr\u0119cznikarnia", "opening_hours": "Mo-Fr 09:30-17:00", "shop": "books"}}, {"type": "node", "id": 3656292428, "lat": 50.0666908, "lon": 19.9295202, "tags": {"female": "yes", "male": "yes", "name": "Trendy", "opening_hours": "Mo-Fr 08:00-20:00; Sa 08:00-16:00", "shop": "hairdresser"}}, {"type": "node", "id": 3656292433, "lat": 50.0667536, "lon": 19.9294496, "tags": {"check_date": "2023-09-15", "noname": "yes", "opening_hours": "Mo-Fr 06:00-20:00; Sa 08:00-14:00", "shop": "kiosk"}}, {"type": "node", "id": 3656292435, "lat": 50.0668934, "lon": 19.9297283, "tags": {"brand": "\u017babka", "brand:wikidata": "Q2589061", "brand:wikipedia": "pl:\u017babka (sie\u0107 sklep\u00f3w)", "level": "0", "name": "\u017babka", "name:pl": "\u017babka", "name:uk": "\u0416\u0430\u0431\u043a\u0430", "opening_hours": "Mo-Sa 06:00-23:00; PH,Su 13:00-21:00", "payment:blik": "yes", "payment:cash": "yes", "payment:coins": "yes", "payment:contactless": "yes", "payment:mastercard": "yes", "payment:visa": "yes", "shop": "convenience", "website": "https://zabka.pl/"}}, {"type": "node", "id": 3743039775, "lat": 50.067668, "lon": 19.9156425, "tags": {"check_date:opening_hours": "2024-08-15", "name": "JS-Vision", "opening_hours": "Mo-Fr 11:00-18:00", "shop": "optician"}}, {"type": "node", "id": 3798152268, "lat": 50.0588104, "lon": 19.9287535, "tags": {"addr:city": "Krak\u00f3w", "addr:housenumber": "25a", "addr:postcode": "31-108", "addr:street": "Smole\u0144sk", "name": "Krisflo", "shop": "florist"}}, {"type": "node", "id": 3801849157, "lat": 50.0601363, "lon": 19.9343141, "tags": {"check_date": "2024-08-03", "name": "Na Rogatce", "opening_hours": "Mo-Sa 07:00-22:00", "shop": "convenience"}}, {"type": "node", "id": 3806351624, "lat": 50.0604623, "lon": 19.9349664, "tags": {"addr:housenumber": "10", "addr:street": "Go\u0142\u0119bia", "check_date:opening_hours": "2023-03-29", "name": "Froart", "opening_hours": "Mo-Fr 10:00-18:00, Sa 10:00-14:00", "operator": "Froart", "payment:credit_cards": "yes", "payment:debit_cards": "yes", "shop": "jewelry", "wheelchair": "limited"}}, {"type": "node", "id": 3882470078, "lat": 50.0573012, "lon": 19.9267728, "tags": {"name": "Ksi\u0119garnia Muzyczna", "shop": "books"}}, {"type": "node", "id": 3955802897, "lat": 50.0676706, "lon": 19.9158299, "tags": {"name": "Flowers", "opening_hours": "Mo-Fr 11:00-18:00; Sa 12:00-18:00", "shop": "florist", "wheelchair": "limited"}}, {"type": "node", "id": 3978576250, "lat": 50.0636776, "lon": 19.9329978, "tags": {"check_date:opening_hours": "2025-01-28", "craft": "key_cutter", "description": "z wizyt\u00f3wki: \"dorabianie kluczy, wk\u0142adki, zamki, systemy master key, k\u0142\u00f3dki, breloki, wymiana baterii\"", "name": "aim", "opening_hours": "Mo-Fr 10:00-18:00", "payment:credit_cards": "yes", "payment:debit_cards": "yes", "shop": "locksmith", "wheelchair": "yes"}}, {"type": "node", "id": 3999393962, "lat": 50.0596632, "lon": 19.9255686, "tags": {"addr:city": "Krak\u00f3w", "addr:housenumber": "29", "addr:street": "Marsza\u0142ka J\u00f3zefa Pi\u0142sudskiego", "name": "Orientalny Bazar", "note": "sklep z indyjsk\u0105 odzie\u017c\u0105", "opening_hours": "Mo-Fr 10:00-17:00", "payment:credit_cards": "yes", "payment:debit_cards": "yes", "shop": "clothes", "wheelchair": "no"}}, {"type": "node", "id": 4004675527, "lat": 50.0671975, "lon": 19.9305919, "tags": {"addr:city": "Krak\u00f3w", "addr:housenumber": "15b", "addr:postcode": "31-135", "addr:street": "Stefana Batorego", "name": "Ksi\u0119garnia Bonito", "opening_hours": "Mo-Fr 08:00-20:00; Sa 10:00-14:00; Su off", "shop": "books"}}, {"type": "node", "id": 4004696391, "lat": 50.0674052, "lon": 19.9335699, "tags": {"addr:city": "Krak\u00f3w", "addr:housenumber": "2", "addr:postcode": "31-135", "addr:street": "Stefana Batorego", "name": "Antykwariat Fankomiks", "opening_hours": "Tu-Fr 10:00-18:00; Mo 12:00-18:00; Sa 11:00-15:00", "phone": "+48 796 057 571", "shop": "books"}}, {"type": "node", "id": 4146767192, "lat": 50.0590826, "lon": 19.9305202}, {"type": "node", "id": 4146767207, "lat": 50.0591198, "lon": 19.9307315}, {"type": "node", "id": 4146767239, "lat": 50.0591763, "lon": 19.9304806}, {"type": "node", "id": 4146767247, "lat": 50.0591909, "lon": 19.9305606}, {"type": "node", "id": 4146767248, "lat": 50.0591989, "lon": 19.9306069}, {"type": "node", "id": 4146767249, "lat": 50.0592022, "lon": 19.930556}, {"type": "node", "id": 4146767253, "lat": 50.0592101, "lon": 19.9306023}, {"type": "node", "id": 4146767256, "lat": 50.059219, "lon": 19.9307215}, {"type": "node", "id": 4256374455, "lat": 50.0626175, "lon": 19.923028}, {"type": "node", "id": 4262918272, "lat": 50.0729341, "lon": 19.9176456, "tags": {"addr:housenumber": "11", "addr:street": "Nowowiejska", "name": "Alsen Abarta", "opening_hours": "Mo-Fr 10:00-18:00", "phone": "+48 600 401 078", "shop": "computer"}}, {"type": "node", "id": 4347932415, "lat": 50.073884, "lon": 19.9143867, "tags": {"addr:city": "Krak\u00f3w", "addr:housenumber": "9", "addr:postcode": "30-053", "addr:street": "Kronikarza Galla", "description": "Profesjonalny serwis GSM - Sprzeda\u017c, Skup, Naprawa: telefony, tablety, E-Booki, GPS, s\u0142uchawki, MP3/MP4 oraz inne mniejsze urz\u0105dzenia mobilne.", "name": "E11 MT-Lab Serwis GSM", "opening_hours": "Mo-Fr 10:30-17:30", "phone": "+48888508333", "shop": "mobile_phone", "website": "www.e11mtlab.pl"}}, {"type": "node", "id": 4512835898, "lat": 50.0628501, "lon": 19.9343972, "tags": {"check_date": "2025-07-24", "contact:city": "Krak\u00f3w", "contact:housenumber": "21", "contact:postcode": "31-009", "contact:street": "Szewska", "name": "Pepita", "opening_hours": "Mo-Su 10:00-20:30", "shop": "clothes"}}, {"type": "node", "id": 4692967548, "lat": 50.0748288, "lon": 19.9119391, "tags": {"addr:city": "Krak\u00f3w", "addr:housenumber": "140", "addr:street": "Kazimierza Wielkiego", "brand": "\u017babka", "brand:wikidata": "Q2589061", "brand:wikipedia": "pl:\u017babka (sie\u0107 sklep\u00f3w)", "check_date": "2025-06-09", "internet_access": "no", "name": "\u017babka", "name:pl": "\u017babka", "name:uk": "\u0416\u0430\u0431\u043a\u0430", "opening_hours": "Mo-Sa 06:00-22:00; PH,Su 11:00-22:00", "payment:cash": "yes", "payment:credit_cards": "yes", "payment:debit_cards": "yes", "phone": "+48 61 856 37 00", "shop": "convenience", "website": "https://zabka.pl/", "wheelchair": "no"}}, {"type": "node", "id": 4729002778, "lat": 50.0574424, "lon": 19.9306391, "tags": {"check_date": "2024-08-03", "name": "Barocco", "opening_hours": "Mo-Fr 10:00-18:00; Sa 10:00-14:00", "shop": "clothes"}}, {"type": "node", "id": 4729002779, "lat": 50.0575001, "lon": 19.9307078, "tags": {"brand": "\u017babka", "brand:wikidata": "Q2589061", "brand:wikipedia": "pl:\u017babka (sie\u0107 sklep\u00f3w)", "check_date": "2024-08-03", "check_date:opening_hours": "2022-01-27", "name": "\u017babka", "name:pl": "\u017babka", "name:uk": "\u0416\u0430\u0431\u043a\u0430", "opening_hours": "Mo-Su 06:00-23:00", "payment:blik": "yes", "payment:cash": "yes", "payment:coins": "yes", "payment:contactless": "yes", "payment:mastercard": "yes", "payment:visa": "yes", "shop": "convenience", "website": "https://zabka.pl/"}}, {"type": "node", "id": 4729004717, "lat": 50.0579365, "lon": 19.9315492, "tags": {"check_date": "2024-09-04", "name": "Zbita Szybka", "shop": "mobile_phone"}}, {"type": "node", "id": 4729007980, "lat": 50.0582606, "lon": 19.9322716, "tags": {"check_date": "2024-09-04", "laundry_service": "yes", "name": "Betty Clean", "self_service": "no", "shop": "laundry"}}, {"type": "node", "id": 4729007981, "lat": 50.0583355, "lon": 19.9319814, "tags": {"check_date": "2025-08-05", "name": "TK Laser", "opening_hours": "Tu-Sa 10:00-20:00", "shop": "beauty"}}, {"type": "node", "id": 4729007983, "lat": 50.0582321, "lon": 19.931744, "tags": {"check_date": "2025-08-05", "name": "Pawlak", "opening_hours": "Mo-Fr 06:00-24:00; Sa 06:00-13:00; PH,Su off", "shop": "bakery"}}, {"type": "node", "id": 4729007985, "lat": 50.0581014, "lon": 19.9313932, "tags": {"check_date": "2024-08-03", "name": "Antyki Widurscy", "opening_hours": "Mo-Fr 11:00-18:00; Sa 11:00-14:00; PH,Su off", "shop": "pawnbroker"}}, {"type": "node", "id": 4729009614, "lat": 50.0583748, "lon": 19.9320673, "tags": {"brand": "\u017babka", "brand:wikidata": "Q2589061", "name": "\u017babka", "name:pl": "\u017babka", "name:uk": "\u0416\u0430\u0431\u043a\u0430", "opening_hours": "Mo-Sa 06:00-20:00; Su 11:00-20:00", "shop": "convenience", "website": "https://www.zabka.pl"}}, {"type": "node", "id": 4736558838, "lat": 50.0576701, "lon": 19.9310693, "tags": {"addr:city": "Krak\u00f3w", "addr:housenumber": "23", "addr:postcode": "33-332", "addr:street": "Tar\u0142owska", "check_date": "2024-09-04", "name": "Buczek", "opening_hours": "Mo-Fr 07:00-19:00; Sa 07:00-16:00", "payment:cash": "yes", "payment:contactless": "yes", "payment:credit_cards": "yes", "phone": "+48 574 830 474", "shop": "bakery", "website": "https://piekarniabuczek.pl"}}, {"type": "node", "id": 4738313996, "lat": 50.0716367, "lon": 19.9093185, "tags": {"addr:city": "Krak\u00f3w", "addr:floor": "0", "addr:housenumber": "86", "addr:street": "Juliusza Lea", "check_date": "2025-06-09", "internet_access": "no", "level": "0", "name": "Alpo", "opening_hours": "Mo-Fr 07:00-22:00; Sa 08:00-22:00; Su off", "payment:cash": "yes", "payment:credit_cards": "yes", "payment:debit_cards": "yes", "shop": "convenience", "wheelchair": "limited"}}, {"type": "node", "id": 4742788308, "lat": 50.0636984, "lon": 19.9329353, "tags": {"check_date:opening_hours": "2024-08-10", "name": "Steskal", "opening_hours": "Mo-Fr 06:00-18:00; Sa 09:00-15:00", "payment:credit_cards": "yes", "payment:debit_cards": "yes", "shop": "bakery", "wheelchair": "yes"}}, {"type": "node", "id": 4745690465, "lat": 50.0630404, "lon": 19.933927, "tags": {"check_date": "2025-07-24", "contact:facebook": "https://www.facebook.com/Krakowskivapeshop/", "name": "Vape Shop", "opening_hours": "Mo-Sa 11:00-19:00; Su 12:00-19:00", "shop": "e-cigarette"}}, {"type": "node", "id": 4749733847, "lat": 50.0610055, "lon": 19.9350313, "tags": {"brand": "Rossmann", "brand:wikidata": "Q316004", "brand:wikipedia": "pl:Rossmann", "check_date": "2025-12-09", "name": "Rossmann", "opening_hours": "Mo-Sa 09:00-21:30; Su 09:30-20:30", "shop": "chemist", "website": "https://www.rossmann.pl/drogerie/Drogeria-Rossmann-wislna-3,krakow,12,317", "wheelchair": "limited"}}, {"type": "node", "id": 4749733848, "lat": 50.0609253, "lon": 19.9352158, "tags": {"check_date": "2025-12-09", "shop": "vacant", "wheelchair": "limited"}}, {"type": "node", "id": 4777608101, "lat": 50.0671802, "lon": 19.930396, "tags": {"level": "0", "name": "Sklep Elektryczny", "opening_hours": "Mo-Fr 09:00-18:00; Sa 10:00-14:00; Su off", "shop": "radiotechnics", "wheelchair": "limited", "wheelchair:description": "Single step"}}, {"type": "node", "id": 4789618072, "lat": 50.0713714, "lon": 19.9256526, "tags": {"check_date:opening_hours": "2019-11-16", "name": "Fujijama", "opening_hours": "Mo-Fr 10:00-19:00; Sa 10:00-14:00", "phone": "+48 12 634 01 90", "shop": "photo", "website": "https://fujijama.pl/kontakt", "wheelchair": "no"}}, {"type": "node", "id": 4807191550, "lat": 50.0708077, "lon": 19.9333457, "tags": {"addr:city": "Krak\u00f3w", "addr:housenumber": "3", "addr:postcode": "31-162", "addr:street": "Stanis\u0142awa Staszica", "description": "Zak\u0142ad Us\u0142ugowy DDDD Zbigniew Mleko to firma z wieloletnim do\u015bwiadczeniem w zakresie us\u0142ug DDD. Zajmujemy si\u0119 profesjonalnym zwalczaniem: - pluskiew, - komar\u00f3w, - much, - muszek, - gryzoni (myszy, szczur\u00f3w). Stosujemy renomowane produkty \u015bwiatowych", "email": "biuro@dezynsekcja-krakow.pl", "name": "Zak\u0142ad Us\u0142ugowy DDDD Zbigniew Mleko", "phone": "+48 694 137 120", "shop": "pest_control", "website": "https://www.dezynsekcja-krakow.pl/"}}, {"type": "node", "id": 4839853965, "lat": 50.0740416, "lon": 19.9123367, "tags": {"check_date": "2025-06-09", "internet_access": "wlan", "internet_access:fee": "customers", "name": "Copylandia.pl", "opening_hours": "Mo-Fr 08:00-20:00; Sa 09:00-15:00", "payment:credit_cards": "yes", "payment:debit_cards": "yes", "phone": "+48 666 666 703; +48 666 666 921", "shop": "copyshop", "website": "https://copylandia.pl/", "wheelchair": "limited"}}, {"type": "node", "id": 4866637805, "lat": 50.0727047, "lon": 19.9348769, "tags": {"brand": "Carrefour Express", "brand:wikidata": "Q2940190", "brand:wikipedia": "fr:Carrefour Express", "name": "Carrefour Express", "opening_hours": "Mo-Sa 06:30-22:00, Su 09:00-17:00", "operator": "Groupe Carrefour", "operator:wikidata": "Q3117359", "operator:wikipedia": "fr:Groupe Carrefour", "shop": "convenience"}}, {"type": "node", "id": 4866671549, "lat": 50.0738801, "lon": 19.9353973, "tags": {"check_date": "2024-07-12", "check_date:opening_hours": "2023-06-28", "level": "0", "name": "Lajkonik", "opening_hours": "Mo-Fr 06:30-20:00; Sa,Su 07:00-17:00", "shop": "bakery"}}, {"type": "node", "id": 4866671552, "lat": 50.0737977, "lon": 19.9346146, "tags": {"check_date:opening_hours": "2023-07-23", "name": "Buczek", "opening_hours": "Mo-Fr 06:00-19:00; Sa 06:00-16:00", "shop": "bakery"}}, {"type": "node", "id": 4866672973, "lat": 50.0731005, "lon": 19.9356197, "tags": {"name": "Posejdon", "shop": "seafood", "wheelchair": "yes"}}, {"type": "node", "id": 4866672974, "lat": 50.0731986, "lon": 19.93552, "tags": {"shop": "greengrocer"}}, {"type": "node", "id": 4866672975, "lat": 50.0733295, "lon": 19.9355071, "tags": {"name": "Gugulski", "shop": "butcher"}}, {"type": "node", "id": 4866672976, "lat": 50.0733215, "lon": 19.9354233, "tags": {"addr:housenumber": "1", "addr:street": "D\u0142uga", "name": "Cukiernia Antoni Adamek", "opening_hours": "Mo-Fr 06:00 - 17:00, Sa 07:00 - 13:00", "phone": "+48512371875", "shop": "pastry", "website": "https://www.adamek.pl"}}, {"type": "node", "id": 4866679857, "lat": 50.072774, "lon": 19.9353549, "tags": {"shop": "bakery"}}, {"type": "node", "id": 4866706444, "lat": 50.0722872, "lon": 19.9354386, "tags": {"name": "Pigment", "opening_hours": "Mo-Fr 09:00-19:00, Sa 09:00-14:30", "shop": "chemist", "wheelchair": "limited"}}, {"type": "node", "id": 4924607221, "lat": 50.0644359, "lon": 19.9312189, "tags": {"name": "BBZ Polska", "opening_hours": "Mo-Fr 08:00-21:00; Sa 10:00-15:00", "phone": "+48123490559", "shop": "copyshop", "website": "https://bbzpolska.pl/"}}, {"type": "node", "id": 4949210321, "lat": 50.0720087, "lon": 19.9086077, "tags": {"check_date": "2025-06-09", "check_date:opening_hours": "2024-11-25", "internet_access": "no", "name": "Lak", "opening_hours": "Mo-Fr 09:00-18:00; Sa 09:00-14:00", "payment:cash": "yes", "payment:credit_cards": "yes", "payment:debit_cards": "yes", "shop": "hardware", "wheelchair": "no"}}, {"type": "node", "id": 4951209664, "lat": 50.0720846, "lon": 19.9078167, "tags": {"addr:city": "Krak\u00f3w", "addr:housenumber": "99", "addr:street": "Juliusza Lea", "brand": "\u017babka", "brand:wikidata": "Q2589061", "brand:wikipedia": "pl:\u017babka (sie\u0107 sklep\u00f3w)", "check_date": "2025-06-25", "check_date:opening_hours": "2024-11-25", "internet_access": "no", "name": "\u017babka", "name:pl": "\u017babka", "name:uk": "\u0416\u0430\u0431\u043a\u0430", "opening_hours": "Mo-Su 06:00-23:00", "payment:blik": "yes", "payment:cash": "yes", "payment:coins": "yes", "payment:contactless": "yes", "payment:mastercard": "yes", "payment:visa": "yes", "ref": "Z6131", "shop": "convenience", "website": "https://www.zabka.pl/znajdz-sklep/ID06131-krakow-ul-j-lea-99-lok-3/", "wheelchair": "no"}}, {"type": "node", "id": 4958281908, "lat": 50.0634287, "lon": 19.931462, "tags": {"check_date:opening_hours": "2025-03-07", "name": "Micha\u0142ek", "opening_hours": "Mo-Fr 08:00-20:00; Sa 08:00-16:00", "shop": "pastry", "wheelchair": "no"}}, {"type": "node", "id": 4991239059, "lat": 50.0586797, "lon": 19.9353028, "tags": {"addr:city": "Krak\u00f3w", "check_date": "2025-12-14", "name": "Ksi\u0119garnia Franciszka\u0144ska Fernando", "religion": "christian", "shop": "religion"}}, {"type": "node", "id": 5054999451, "lat": 50.0749095, "lon": 19.9300119, "tags": {"addr:housenumber": "6", "addr:street": "Cieszy\u0144ska", "name": "Max Office", "opening_hours:signed": "no", "shop": "stationery", "wheelchair": "yes"}}, {"type": "node", "id": 5054999458, "lat": 50.0750236, "lon": 19.9334279, "tags": {"name": "Obuwie", "opening_hours": "Mo-Fr 09:00-17:00", "shop": "shoes", "wheelchair": "limited"}}, {"type": "node", "id": 5059128076, "lat": 50.0744162, "lon": 19.935514, "tags": {"addr:housenumber": "6", "addr:street": "Pr\u0105dnicka", "brand": "Rossmann", "brand:wikidata": "Q316004", "brand:wikipedia": "pl:Rossmann", "check_date:opening_hours": "2025-11-02", "name": "Rossmann", "opening_hours": "Mo-Fr 07:30-21:00; Sa 08:00-20:00", "shop": "chemist", "website": "https://www.rossmann.pl/drogerie/Drogeria-Rossmann-lubelska-31,krakow,12,229", "wheelchair": "no"}}, {"type": "node", "id": 5084575921, "lat": 50.0644137, "lon": 19.9277548, "tags": {"check_date": "2025-08-06", "name": "Kondrat", "name:pl": "Kondrat", "opening_hours": "Mo-Fr 10:00-18:00; Sa 10:00-14:00", "shop": "wine"}}, {"type": "node", "id": 5145080923, "lat": 50.0669458, "lon": 19.9201189, "tags": {"beauty": "nails", "check_date": "2025-12-01", "name": "ManiMania", "shop": "beauty"}}, {"type": "node", "id": 5162823365, "lat": 50.0705374, "lon": 19.916529}, {"type": "node", "id": 5162823366, "lat": 50.0705834, "lon": 19.9165377}, {"type": "node", "id": 5162823367, "lat": 50.0705869, "lon": 19.9164932}, {"type": "node", "id": 5162823368, "lat": 50.0705412, "lon": 19.9164853}, {"type": "node", "id": 5162823369, "lat": 50.0706441, "lon": 19.9165494}, {"type": "node", "id": 5162823370, "lat": 50.0705948, "lon": 19.9165386}, {"type": "node", "id": 5162823371, "lat": 50.070599, "lon": 19.9164948}, {"type": "node", "id": 5162823372, "lat": 50.0706483, "lon": 19.9165057}, {"type": "node", "id": 5162823373, "lat": 50.0707083, "lon": 19.916563}, {"type": "node", "id": 5162823374, "lat": 50.070662, "lon": 19.9165535}, {"type": "node", "id": 5162823375, "lat": 50.070665, "lon": 19.9165088}, {"type": "node", "id": 5162823376, "lat": 50.0707124, "lon": 19.9165183}, {"type": "node", "id": 5162823377, "lat": 50.0707685, "lon": 19.9165745}, {"type": "node", "id": 5162823378, "lat": 50.0707266, "lon": 19.9165668}, {"type": "node", "id": 5162823379, "lat": 50.07073, "lon": 19.9165216}, {"type": "node", "id": 5162823380, "lat": 50.0707727, "lon": 19.9165311}, {"type": "node", "id": 5162823381, "lat": 50.0708465, "lon": 19.9165898}, {"type": "node", "id": 5162823382, "lat": 50.0707877, "lon": 19.9165784}, {"type": "node", "id": 5162823383, "lat": 50.07079, "lon": 19.9165347}, {"type": "node", "id": 5162823384, "lat": 50.07085, "lon": 19.9165467}, {"type": "node", "id": 5165280923, "lat": 50.0730865, "lon": 19.9350641, "tags": {"noname": "yes", "shop": "florist"}}, {"type": "node", "id": 5165280924, "lat": 50.0730045, "lon": 19.9351313, "tags": {"noname": "yes", "ref": "6", "shop": "florist"}}, {"type": "node", "id": 5165280925, "lat": 50.0732017, "lon": 19.9349615, "tags": {"noname": "yes", "shop": "florist", "wheelchair": "limited"}}, {"type": "node", "id": 5165280926, "lat": 50.0728837, "lon": 19.935248, "tags": {"noname": "yes", "shop": "florist"}}, {"type": "node", "id": 5165287163, "lat": 50.072998, "lon": 19.9355732, "tags": {"shop": "newsagent"}}, {"type": "node", "id": 5165296808, "lat": 50.0732171, "lon": 19.9355186, "tags": {"shop": "clothes"}}, {"type": "node", "id": 5165297227, "lat": 50.0732252, "lon": 19.9356177, "tags": {"shop": "butcher"}}, {"type": "node", "id": 5165297600, "lat": 50.0730331, "lon": 19.9355343, "tags": {"shop": "greengrocer"}}, {"type": "node", "id": 5165297601, "lat": 50.0729024, "lon": 19.9355531, "tags": {"shop": "greengrocer"}}, {"type": "node", "id": 5165302456, "lat": 50.0730155, "lon": 19.9352579, "tags": {"shop": "clothes"}}, {"type": "node", "id": 5165302457, "lat": 50.0730854, "lon": 19.9352055, "tags": {"name": "Gabrusia", "shop": "pastry"}}, {"type": "node", "id": 5165303052, "lat": 50.0727811, "lon": 19.9355565, "tags": {"shop": "greengrocer"}}, {"type": "node", "id": 5165303053, "lat": 50.0727865, "lon": 19.9356178, "tags": {"shop": "greengrocer"}}, {"type": "node", "id": 5165303054, "lat": 50.0727901, "lon": 19.935505, "tags": {"shop": "greengrocer"}}, {"type": "node", "id": 5177952843, "lat": 50.0707336, "lon": 19.9163904, "tags": {"name": "Piekarnia Mojego Taty", "shop": "bakery", "wheelchair": "no"}}, {"type": "node", "id": 5177952844, "lat": 50.0708265, "lon": 19.9164029, "tags": {"shop": "butcher"}}, {"type": "node", "id": 5260493112, "lat": 50.0738634, "lon": 19.9334909, "tags": {"addr:city": "Krak\u00f3w", "addr:housenumber": "4", "addr:postcode": "30-001", "addr:street": "\u015al\u0105ska", "brand": "\u017babka", "brand:wikidata": "Q2589061", "brand:wikipedia": "pl:\u017babka (sie\u0107 sklep\u00f3w)", "name": "\u017babka", "name:pl": "\u017babka", "name:uk": "\u0416\u0430\u0431\u043a\u0430", "opening_hours": "Mo-Sa 06:00-23:00; Su 11:00-20:00", "payment:blik": "yes", "payment:cash": "yes", "payment:coins": "yes", "payment:contactless": "yes", "payment:mastercard": "yes", "payment:visa": "yes", "ref": "Z0813", "shop": "convenience", "website": "https://www.zabka.pl/znajdz-sklep/ID00813-krakow-slaska-4/", "wheelchair": "limited"}}, {"type": "node", "id": 5299855121, "lat": 50.0681334, "lon": 19.9274266, "tags": {"name": "\u017babka", "shop": "convenience"}}, {"type": "node", "id": 5336172666, "lat": 50.0714362, "lon": 19.9332294, "tags": {"name": "MiB optic", "opening_hours": "Mo-Fr 10:00-18:00", "shop": "optician"}}, {"type": "node", "id": 5432072422, "lat": 50.0723589, "lon": 19.9353972, "tags": {"addr:housenumber": "78/1", "addr:postcode": "31-146", "addr:street": "D\u0142uga", "amenity": "ice_cream", "name": "Lodziarnia galicyjska", "opening_hours": "Mo-Sa 10:00-18:00", "shop": "ice_cream"}}, {"type": "node", "id": 5446408722, "lat": 50.0626008, "lon": 19.9230643}, {"type": "node", "id": 5446408723, "lat": 50.0625825, "lon": 19.9230438}, {"type": "node", "id": 5446408724, "lat": 50.0625993, "lon": 19.9230076}, {"type": "node", "id": 5613140097, "lat": 50.0729626, "lon": 19.9351691, "tags": {"name": "osm Radomsko", "shop": "dairy"}}, {"type": "node", "id": 5618078951, "lat": 50.0651339, "lon": 19.9253932, "tags": {"name": "Bike atelier", "opening_hours": "Mo-Fr 10:00-20:00; Sa 10:00-16:00; PH closed", "shop": "bicycle"}}, {"type": "node", "id": 5627091766, "lat": 50.0716629, "lon": 19.9328814, "tags": {"name": "Alpindoor", "opening_hours": "Mo-Fr 10:00-18:00; Sa 10:00-14:30", "shop": "sports", "sport": "mountaineering"}}, {"type": "node", "id": 5628709078, "lat": 50.0693601, "lon": 19.9115776, "tags": {"check_date:opening_hours": "2024-11-07", "name": "\u017babka", "opening_hours": "Mo-Fr 06:00-22:00; Sa 09:00-21:00", "shop": "convenience"}}, {"type": "node", "id": 5628721819, "lat": 50.071187, "lon": 19.915706, "tags": {"name": "Pawlak", "opening_hours": "Mo-Fr 06:00-17:35; Sa 06:00-12:35", "shop": "bakery"}}, {"type": "node", "id": 5643721690, "lat": 50.0669336, "lon": 19.9287117, "tags": {"check_date:opening_hours": "2025-07-08", "level": "0", "name": "Pasmanteria K\u0142\u0119buszek", "opening_hours": "Mo-Fr 10:00-18:30; Sa 10:30-14:30; PH closed", "shop": "sewing", "wheelchair": "no"}}, {"type": "node", "id": 5645199277, "lat": 50.0693248, "lon": 19.9256477, "tags": {"brand": "Awiteks", "brand:wikidata": "Q62054190", "check_date:opening_hours": "2024-07-08", "indoor_seating": "no", "name": "Awiteks", "opening_hours": "Mo-Fr 06:00-20:00; Sa 06:00-14:00", "outdoor_seating": "no", "shop": "bakery", "takeaway": "only", "wheelchair": "no"}}, {"type": "node", "id": 5777580153, "lat": 50.073573, "lon": 19.9193678, "tags": {"addr:city": "Krak\u00f3w", "addr:housenumber": "57", "addr:postcode": "30-074", "addr:street": "Kazimierza Wielkiego", "name": "Duet studio", "shop": "hairdresser"}}, {"type": "node", "id": 5817823958, "lat": 50.0651484, "lon": 19.9155278, "tags": {"name": "Tik-Tak", "shop": "kiosk"}}, {"type": "node", "id": 5819058226, "lat": 50.0744441, "lon": 19.9353101, "tags": {"brand": "\u017babka", "brand:wikidata": "Q2589061", "brand:wikipedia": "pl:\u017babka (sie\u0107 sklep\u00f3w)", "check_date:opening_hours": "2023-06-28", "name": "\u017babka", "name:pl": "\u017babka", "name:uk": "\u0416\u0430\u0431\u043a\u0430", "opening_hours": "Mo-Sa 06:00-23:00; Su 10:00-20:00", "payment:blik": "yes", "payment:cash": "yes", "payment:coins": "yes", "payment:contactless": "yes", "payment:mastercard": "yes", "payment:visa": "yes", "ref": "Z4686", "shop": "convenience", "website": "https://www.zabka.pl/znajdz-sklep/ID04686-krakow-lubelska-31/", "wheelchair": "limited"}}, {"type": "node", "id": 5868031896, "lat": 50.0584234, "lon": 19.9231759, "tags": {"addr:postcode": "30-311", "name": "Forum Designu", "opening_hours": "Mo-Sa 11:00-19:00; Su 11:00-17:00", "shop": "furniture", "website": "http://www.forumdesignu.pl"}}, {"type": "node", "id": 5878329229, "lat": 50.0593413, "lon": 19.9258035, "tags": {"name:signed": "no", "shop": "kiosk"}}, {"type": "node", "id": 5891539486, "lat": 50.0630144, "lon": 19.9340147, "tags": {"check_date": "2025-07-24", "female": "no", "hairdresser": "barber", "male": "yes", "name": "Bous", "shop": "hairdresser"}}, {"type": "node", "id": 5927697006, "lat": 50.0687817, "lon": 19.926661, "tags": {"addr:city": "Krak\u00f3w", "addr:housenumber": "70", "addr:postcode": "31-128", "addr:street": "Karmelicka", "brand": "\u017babka", "brand:wikidata": "Q2589061", "brand:wikipedia": "pl:\u017babka (sie\u0107 sklep\u00f3w)", "check_date:opening_hours": "2025-03-18", "name": "\u017babka", "name:pl": "\u017babka", "name:uk": "\u0416\u0430\u0431\u043a\u0430", "opening_hours": "Mo-Su,PH 06:00-23:00", "payment:blik": "yes", "payment:cash": "yes", "payment:coins": "yes", "payment:contactless": "yes", "payment:mastercard": "yes", "payment:visa": "yes", "ref": "Z6457", "shop": "convenience", "website": "https://zabka.pl/", "wheelchair": "no"}}, {"type": "node", "id": 5932809120, "lat": 50.069965, "lon": 19.9258148}, {"type": "node", "id": 5932809121, "lat": 50.069957, "lon": 19.9258528}, {"type": "node", "id": 5932809122, "lat": 50.0699216, "lon": 19.9258343}, {"type": "node", "id": 5932809123, "lat": 50.0699296, "lon": 19.9257965}, {"type": "node", "id": 6021503872, "lat": 50.0722738, "lon": 19.9267208, "tags": {"name": "Jano-Pol", "opening_hours": "Mo-Su 08:00-19:00", "shop": "greengrocer"}}, {"type": "node", "id": 6021509335, "lat": 50.0744646, "lon": 19.9287595, "tags": {"brand": "Awiteks", "brand:wikidata": "Q62054190", "check_date:opening_hours": "2025-02-10", "name": "Awiteks", "opening_hours": "Mo-Fr 06:00-20:00; Sa 07:00-15:00", "shop": "bakery", "wheelchair": "no"}}, {"type": "node", "id": 6049305438, "lat": 50.0734476, "lon": 19.9126161, "tags": {"check_date:opening_hours": "2023-06-20", "name": "Cameleon", "opening_hours": "Mo-Fr 09:00-18:00; Sa 09:00-14:00", "second_hand": "only", "shop": "clothes"}}, {"type": "node", "id": 6116316390, "lat": 50.0722382, "lon": 19.9282414, "tags": {"name": "Bike gara\u017c", "opening_hours": "Mo,Tu 08:00-17:00; We-Fr 08:00-21:00; Sa 09:00-16:00; PH off", "shop": "bicycle"}}, {"type": "node", "id": 6145388267, "lat": 50.0706741, "lon": 19.9167973, "tags": {"shop": "dried_fruits", "street_vendor": "yes", "wheelchair": "yes"}}, {"type": "node", "id": 6145388268, "lat": 50.0706839, "lon": 19.9169761, "tags": {"shop": "greengrocer", "street_vendor": "yes", "wheelchair": "yes"}}, {"type": "node", "id": 6181555223, "lat": 50.0697791, "lon": 19.9260717, "tags": {"check_date:opening_hours": "2023-09-01", "level": "-1", "name": "Sstudio", "opening_hours": "Mo-Fr 09:00-19:00; Sa 09:00-15:00", "sells:laptop_chargers": "yes", "shop": "computer", "wheelchair": "no"}}, {"type": "node", "id": 6240337992, "lat": 50.0681899, "lon": 19.9272713, "tags": {"name": "Hair Design", "shop": "hairdresser"}}, {"type": "node", "id": 6257666500, "lat": 50.0631206, "lon": 19.9343977, "tags": {"piercing": "yes", "shop": "tattoo", "wheelchair": "no"}}, {"type": "node", "id": 6261819901, "lat": 50.0685583, "lon": 19.9269097, "tags": {"addr:housenumber": "68", "addr:street": "Karmelicka", "name": "Punkt GSM Lyca Mobile", "shop": "mobile_phone"}}, {"type": "node", "id": 6261819987, "lat": 50.0689697, "lon": 19.9268569, "tags": {"addr:street": "Karmelicka", "check_date": "2024-09-19", "check_date:opening_hours": "2024-09-19", "indoor_seating": "yes", "name": "Buczek", "opening_hours": "Mo-Fr 07:00-19:00; Sa 07:00-16:00", "outdoor_seating": "no", "payment:credit_cards": "yes", "payment:debit_cards": "yes", "shop": "bakery"}}, {"type": "node", "id": 6307182981, "lat": 50.0739903, "lon": 19.9353033, "tags": {"name": "Kama", "shop": "tailor", "wheelchair": "yes"}}, {"type": "node", "id": 6307182982, "lat": 50.0740333, "lon": 19.9352972, "tags": {"craft": "key_cutter", "name": "Riso-bis", "shop": "locksmith"}}, {"type": "node", "id": 6307182983, "lat": 50.0739976, "lon": 19.9352637, "tags": {"shop": "beauty", "wheelchair": "yes"}}, {"type": "node", "id": 6307183186, "lat": 50.0740101, "lon": 19.9351775, "tags": {"name": "Avita", "opening_hours": "Mo-Fr 06:00-21:00; Sa 07:00-19:00", "shop": "convenience", "wheelchair": "yes"}}, {"type": "node", "id": 6307183188, "lat": 50.0739186, "lon": 19.9351886, "tags": {"shop": "jewelry", "wheelchair": "yes"}}, {"type": "node", "id": 6307183669, "lat": 50.0738496, "lon": 19.9351417, "tags": {"brand": "Ruch", "brand:wikidata": "Q1260314", "brand:wikipedia": "pl:Ruch (przedsi\u0119biorstwo)", "name": "Ruch", "shop": "kiosk", "wheelchair": "limited"}}, {"type": "node", "id": 6375756700, "lat": 50.0723863, "lon": 19.9184985, "tags": {"addr:city": "Krak\u00f3w", "addr:housenumber": "47", "addr:postcode": "30-040", "addr:street": "Kr\u00f3lewska", "amenity": "pharmacy", "branch": "Dermo", "brand": "Ziko Apteka", "brand:wikidata": "Q63432892", "check_date": "2022-11-14", "check_date:opening_hours": "2023-12-19", "description": "Ziko Dermo zlokalizowana jest w Krakowie przy ulicy Kr\u00f3lewskiej 47. Czynna jest przez 6 dni w tygodniu \u2013 od poniedzia\u0142ku do soboty. W niedziele plac\u00f3wka jest nieczynna.", "dispensing": "yes", "healthcare": "pharmacy", "internet_access": "no", "name": "Ziko Apteka", "opening_hours": "Mo-Fr 08:00-22:00; Sa 08:00-16:00", "payment:cash": "yes", "payment:coins": "yes", "payment:credit_cards": "yes", "payment:debit_cards": "yes", "payment:mastercard": "yes", "payment:visa": "yes", "phone": "+48 12 687 57 47", "shop": "chemist", "short_name": "Ziko", "website": "https://www.ziko.pl/krakow-drogerie-ziko/krolewska-47/"}}, {"type": "node", "id": 6375855924, "lat": 50.0732538, "lon": 19.9345427, "tags": {"addr:city": "Krak\u00f3w", "addr:housenumber": "88", "addr:postcode": "30-004", "addr:street": "D\u0142uga", "check_date": "2025-08-02", "description": "Ziko Dermo zlokalizowana jest w Krakowie przy ulicy D\u0142ugiej 88. Czynna jest przez 6 dni w tygodniu \u2013 od poniedzia\u0142ku do soboty. W niedziele plac\u00f3wka jest nieczynna.", "dispensing": "yes", "name": "Ziko Dermo", "opening_hours": "Mo-Fr 08:00-21:00, Sa 09:00-17:00", "operator": "Ziko", "payment:cash": "yes", "payment:coins": "yes", "payment:mastercard": "yes", "payment:visa": "yes", "phone": "+48 12 687 57 47", "shop": "chemist", "website": "https://www.ziko.pl/krakow-drogerie-ziko/dluga-88/"}}, {"type": "node", "id": 6375972416, "lat": 50.0640987, "lon": 19.9333992, "tags": {"addr:city": "Krak\u00f3w", "addr:housenumber": "2", "addr:postcode": "30-962", "addr:street": "Juliana Dunajewskiego", "check_date:opening_hours": "2025-03-05", "description": "Ziko Dermo zlokalizowana jest w Krakowie przy ulicy Juliana Dunajewskiego 2. Czynna jest przez 7 dni w tygodniu \u2013 od poniedzia\u0142ku do niedzieli.", "dispensing": "yes", "name": "Ziko Dermo", "opening_hours": "Mo-Fr 08:00-22:00, Sa 09:00-18:00, Su 10:00-18:00", "payment:cash": "yes", "payment:coins": "yes", "payment:credit_cards": "yes", "payment:debit_cards": "yes", "payment:mastercard": "yes", "payment:visa": "yes", "phone": "+48 12 687 57 47", "shop": "chemist", "website": "https://www.ziko.pl/krakow-drogerie-ziko/dunajewskiego-2/", "wheelchair": "no"}}, {"type": "node", "id": 6429057333, "lat": 50.0700146, "lon": 19.9255995, "tags": {"name": "Rado\u015b\u0107 kupowania", "opening_hours": "Mo-Fr 10:00-19:00; Sa 10:00-16:00", "second_hand": "yes", "shop": "clothes", "wheelchair": "limited"}}, {"type": "node", "id": 6429057349, "lat": 50.0727327, "lon": 19.9215665, "tags": {"check_date": "2025-06-09", "internet_access": "no", "name": "Anmarket owocowy ogr\u00f3d", "opening_hours": "Mo-Fr 09:00-17:00; Sa 09:00-12:30", "payment:cash": "yes", "payment:credit_cards": "yes", "payment:debit_cards": "yes", "shop": "greengrocer", "wheelchair": "yes"}}, {"type": "node", "id": 6429057350, "lat": 50.0737544, "lon": 19.9229635, "tags": {"name": "Ars Antiqua", "opening_hours": "Mo-Fr 10:00-18:00; Sa 10:00-14:00", "shop": "antiques"}}, {"type": "node", "id": 6429237603, "lat": 50.0723732, "lon": 19.9224203, "tags": {"check_date": "2025-06-09", "name": "Czajczyk", "opening_hours": "Mo-Fr 06:00-15:00; Sa 06:00-14:00", "payment:cash": "yes", "payment:credit_cards": "yes", "payment:debit_cards": "yes", "shop": "bakery", "wheelchair": "limited"}}, {"type": "node", "id": 6429237604, "lat": 50.0724226, "lon": 19.9222779, "tags": {"opening_hours": "Mo-Su 08:00-15:00", "shop": "newsagent"}}, {"type": "node", "id": 6453141434, "lat": 50.0715558, "lon": 19.9261384}, {"type": "node", "id": 6453141435, "lat": 50.0715508, "lon": 19.9262087}, {"type": "node", "id": 6453141436, "lat": 50.0715214, "lon": 19.9261703}, {"type": "node", "id": 6453141437, "lat": 50.0715225, "lon": 19.9261539}, {"type": "node", "id": 6453141438, "lat": 50.0715404, "lon": 19.926207}, {"type": "node", "id": 6453141439, "lat": 50.0715162, "lon": 19.9261856}, {"type": "node", "id": 6453141440, "lat": 50.0715296, "lon": 19.9262114}, {"type": "node", "id": 6499367440, "lat": 50.0679745, "lon": 19.9282232}, {"type": "node", "id": 6499367441, "lat": 50.0679629, "lon": 19.9281992}, {"type": "node", "id": 6501633837, "lat": 50.0631466, "lon": 19.9314653, "tags": {"check_date": "2025-11-13", "noname": "yes", "shop": "copyshop"}}, {"type": "node", "id": 6501633842, "lat": 50.0672386, "lon": 19.9293983, "tags": {"level": "0", "name": "Ksero Atlantyda", "payment:maestro": "yes", "payment:mastercard": "yes", "payment:visa": "yes", "payment:visa_electron": "yes", "shop": "copyshop"}}, {"type": "node", "id": 6501633844, "lat": 50.0746698, "lon": 19.9231417, "tags": {"brand": "\u017babka", "brand:wikidata": "Q2589061", "brand:wikipedia": "pl:\u017babka (sie\u0107 sklep\u00f3w)", "name": "\u017babka", "name:pl": "\u017babka", "name:uk": "\u0416\u0430\u0431\u043a\u0430", "opening_hours": "Mo-Sa 06:00-23:00; Su,PH 12:00-20:00", "payment:blik": "yes", "payment:cash": "yes", "payment:coins": "yes", "payment:contactless": "yes", "payment:mastercard": "yes", "payment:visa": "yes", "ref": "Z4735", "shop": "convenience", "website": "https://www.zabka.pl/znajdz-sklep/ID04735-krakow-rzeczna-13-lok-u-1/"}}, {"type": "node", "id": 6512045585, "lat": 50.0690712, "lon": 19.9328409, "tags": {"brand": "\u017babka", "brand:wikidata": "Q2589061", "name": "\u017babka", "name:pl": "\u017babka", "name:uk": "\u0416\u0430\u0431\u043a\u0430", "opening_hours": "Mo-Sa 06:00-23:00", "shop": "convenience"}}, {"type": "node", "id": 6524966010, "lat": 50.0698924, "lon": 19.9259046, "tags": {"name": "Atelier Fryzjerstwo - G\u0142uszy\u0144ska", "noname": "yes", "shop": "hairdresser"}}, {"type": "node", "id": 6534268829, "lat": 50.0730351, "lon": 19.930298, "tags": {"check_date": "2025-12-15", "shop": "vacant"}}, {"type": "node", "id": 6534309593, "lat": 50.0728818, "lon": 19.9304777, "tags": {"addr:housenumber": "4/6", "addr:street": "Mazowiecka", "check_date:opening_hours": "2022-05-26", "level": "0", "name": "PSS Spo\u0142em Zgoda", "opening_hours": "Mo-Fr 06:30-20:00; Sa 08:00-15:00", "operator": "PSS Spo\u0142em", "payment:credit_cards": "yes", "payment:debit_cards": "yes", "shop": "convenience"}}, {"type": "node", "id": 6534314786, "lat": 50.0731801, "lon": 19.9306288, "tags": {"addr:housenumber": "7", "addr:street": "Mazowiecka", "name": "Atelier Joanna \u0141opatowska", "shop": "hairdresser", "wheelchair": "no"}}, {"type": "node", "id": 6534317698, "lat": 50.0735322, "lon": 19.9292863, "tags": {"addr:city": "Krak\u00f3w", "addr:housenumber": "14", "addr:street": "Mazowiecka", "check_date": "2025-12-15", "name": "Kalia", "opening_hours": "Mo-Fr 08:00-16:00; Sa 09:00-14:00", "phone": "+48 12 387 26 41", "shop": "funeral_directors", "website": "https://www.kalia.pl/"}}, {"type": "node", "id": 6558480798, "lat": 50.0602133, "lon": 19.9217174, "tags": {"shop": "bicycle"}}, {"type": "node", "id": 6558502388, "lat": 50.0673758, "lon": 19.9142123, "tags": {"addr:city": "Krak\u00f3w", "addr:housenumber": "2", "addr:street": "Kawiory", "brand": "\u017babka", "brand:wikidata": "Q2589061", "brand:wikipedia": "pl:\u017babka (sie\u0107 sklep\u00f3w)", "check_date": "2025-10-11", "level": "0", "name": "\u017babka", "name:pl": "\u017babka", "name:uk": "\u0416\u0430\u0431\u043a\u0430", "opening_hours": "Mo-Sa 06:00-23:00; PH,Su 11:00-20:00", "payment:blik": "yes", "payment:cash": "yes", "payment:coins": "yes", "payment:contactless": "yes", "payment:mastercard": "yes", "payment:visa": "yes", "shop": "convenience", "website": "https://zabka.pl/", "wheelchair": "no"}}, {"type": "node", "id": 6572334182, "lat": 50.0623188, "lon": 19.9352706, "tags": {"check_date": "2025-12-14", "name:signed": "no", "shop": "tobacco"}}, {"type": "node", "id": 6572342560, "lat": 50.0623453, "lon": 19.9352099, "tags": {"check_date": "2025-12-14", "shop": "vacant", "wheelchair": "no"}}, {"type": "node", "id": 6572355038, "lat": 50.0623483, "lon": 19.9356369, "tags": {"brand": "Carrefour Express", "brand:wikidata": "Q2940190", "brand:wikipedia": "fr:Carrefour Express", "name": "Carrefour Express", "opening_hours": "Mo-Sa 07:00-00:00; Su 10:00-00:00", "shop": "convenience"}}, {"type": "node", "id": 6572367148, "lat": 50.0635411, "lon": 19.9348509, "tags": {"brand": "\u017babka", "brand:wikidata": "Q2589061", "brand:wikipedia": "pl:\u017babka (sie\u0107 sklep\u00f3w)", "check_date:opening_hours": "2023-04-16", "name": "\u017babka", "name:pl": "\u017babka", "name:uk": "\u0416\u0430\u0431\u043a\u0430", "opening_hours": "Mo-Su 06:00-23:00", "payment:blik": "yes", "payment:cash": "yes", "payment:coins": "yes", "payment:contactless": "yes", "payment:mastercard": "yes", "payment:visa": "yes", "shop": "convenience", "website": "https://zabka.pl/"}}, {"type": "node", "id": 6713056916, "lat": 50.0723495, "lon": 19.9169943, "tags": {"brand": "\u017babka", "brand:wikidata": "Q2589061", "brand:wikipedia": "pl:\u017babka (sie\u0107 sklep\u00f3w)", "check_date": "2025-06-09", "check_date:opening_hours": "2025-03-27", "internet_access": "no", "name": "\u017babka", "name:pl": "\u017babka", "name:uk": "\u0416\u0430\u0431\u043a\u0430", "opening_hours": "Mo-Sa 06:00-23:00; Su 10:00-20:00", "payment:blik": "yes", "payment:cash": "yes", "payment:coins": "yes", "payment:contactless": "yes", "payment:mastercard": "yes", "payment:visa": "yes", "shop": "convenience", "website": "https://zabka.pl/", "wheelchair": "no"}}, {"type": "node", "id": 6713069985, "lat": 50.0738094, "lon": 19.9157447, "tags": {"addr:city": "Krak\u00f3w", "addr:housenumber": "57", "addr:street": "Kr\u00f3lewska", "brand": "\u017babka", "brand:wikidata": "Q2589061", "brand:wikipedia": "pl:\u017babka (sie\u0107 sklep\u00f3w)", "check_date": "2025-06-09", "check_date:opening_hours": "2023-04-28", "internet_access": "no", "name": "\u017babka", "name:pl": "\u017babka", "name:uk": "\u0416\u0430\u0431\u043a\u0430", "opening_hours": "Mo-Sa 06:00-23:00; Su 12:00-22:00", "payment:cash": "yes", "payment:coins": "yes", "payment:credit_cards": "yes", "payment:debit_cards": "yes", "phone": "+48 61 856 37 00", "shop": "convenience", "website": "https://zabka.pl", "wheelchair": "yes"}}, {"type": "node", "id": 6724901759, "lat": 50.0609381, "lon": 19.9297981, "tags": {"addr:city": "Krak\u00f3w", "addr:housenumber": "1/L2", "addr:postcode": "31-110", "addr:street": "Czapskich", "brand": "\u017babka", "brand:wikidata": "Q2589061", "brand:wikipedia": "pl:\u017babka (sie\u0107 sklep\u00f3w)", "name": "\u017babka", "name:pl": "\u017babka", "name:uk": "\u0416\u0430\u0431\u043a\u0430", "opening_hours": "Mo-Sa 06:00-23:00; Su 19:00-21:00", "payment:blik": "yes", "payment:cash": "yes", "payment:coins": "yes", "payment:contactless": "yes", "payment:mastercard": "yes", "payment:notes": "yes", "payment:visa": "yes", "ref": "Z5582", "shop": "convenience", "website": "https://zabka.pl/", "wheelchair": "no"}}, {"type": "node", "id": 6790258478, "lat": 50.0629677, "lon": 19.932601, "tags": {"check_date:opening_hours": "2023-08-13", "level": "0", "name": "citygsm", "opening_hours": "Mo-Fr 09:00-19:00; Sa 10:00-15:00", "shop": "mobile_phone", "wheelchair": "no"}}, {"type": "node", "id": 6799056157, "lat": 50.0672724, "lon": 19.9292209, "tags": {"level": "0", "name": "Pracownia Fryzjerska", "shop": "hairdresser"}}, {"type": "node", "id": 6799056159, "lat": 50.0672834, "lon": 19.9292825, "tags": {"level": "0", "name": "Respimed", "shop": "medical_supply"}}, {"type": "node", "id": 6834313397, "lat": 50.0727556, "lon": 19.9350223, "tags": {"name": "Panda", "opening_hours": "Mo-Fr 09:00-18:00; Sa 08:00-14:00", "shop": "pet"}}, {"type": "node", "id": 6855893434, "lat": 50.0647462, "lon": 19.9277087, "tags": {"brand": "\u017babka", "brand:wikidata": "Q2589061", "brand:wikipedia": "pl:\u017babka (sie\u0107 sklep\u00f3w)", "name": "\u017babka", "name:pl": "\u017babka", "name:uk": "\u0416\u0430\u0431\u043a\u0430", "payment:blik": "yes", "payment:cash": "yes", "payment:coins": "yes", "payment:contactless": "yes", "payment:mastercard": "yes", "payment:visa": "yes", "shop": "convenience", "website": "https://zabka.pl/"}}, {"type": "node", "id": 6863530379, "lat": 50.0671224, "lon": 19.9300255, "tags": {"name": "Ortomedica", "opening_hours": "Mo-Fr 08:00-16:00; Sa,Su off", "shop": "medical_supply"}}, {"type": "node", "id": 6863554590, "lat": 50.0672304, "lon": 19.9308287, "tags": {"female:signed": "no", "male:signed": "no", "name": "Salon Fryzjerski Katarzyna Ko\u015bcielniak", "opening_hours": "Mo-Fr 10:00-18:00; Sa 09:00-14:00; Su off", "shop": "hairdresser"}}, {"type": "node", "id": 6905519378, "lat": 50.0687886, "lon": 19.9270342, "tags": {"check_date": "2023-09-15", "name": "Barbara Rosa", "opening_hours": "Mo-Fr 10:00-18:00; Sa 10:00-14:00", "shop": "shoes"}}, {"type": "node", "id": 6905519380, "lat": 50.0678813, "lon": 19.9280362, "tags": {"entrance": "yes"}}, {"type": "node", "id": 6905519383, "lat": 50.0672559, "lon": 19.9283919, "tags": {"brand": "\u017babka", "brand:wikidata": "Q2589061", "brand:wikipedia": "pl:\u017babka (sie\u0107 sklep\u00f3w)", "level": "0", "name": "\u017babka", "name:pl": "\u017babka", "name:uk": "\u0416\u0430\u0431\u043a\u0430", "opening_hours": "Mo-Sa 06:00-23:00; Su 09:00-21:00", "payment:blik": "yes", "payment:cash": "yes", "payment:coins": "yes", "payment:contactless": "yes", "payment:mastercard": "yes", "payment:visa": "yes", "shop": "convenience", "website": "https://zabka.pl/", "wheelchair": "no"}}, {"type": "node", "id": 6905530386, "lat": 50.0686616, "lon": 19.9268202, "tags": {"name": "Artus94", "opening_hours": "Mo-Sa 10:00-19:00; Su off", "shop": "clothes"}}, {"type": "node", "id": 6905543098, "lat": 50.0685972, "lon": 19.9274066, "tags": {"beauty": "hair", "check_date": "2023-09-15", "level": "1", "name": "La Boheme", "shop": "beauty"}}, {"type": "node", "id": 6905587087, "lat": 50.0680151, "lon": 19.9303531, "tags": {"check_date": "2024-09-15", "name": "Atelier Zawalski", "shop": "hairdresser"}}, {"type": "node", "id": 6905587089, "lat": 50.0678893, "lon": 19.9311693, "tags": {"name": "Ceramika-Papier", "shop": "art"}}, {"type": "node", "id": 6905587091, "lat": 50.0680548, "lon": 19.9306665, "tags": {"name": "Kyokushin", "shop": "sports", "sport": "martial_arts"}}, {"type": "node", "id": 6905587095, "lat": 50.0679807, "lon": 19.9295642, "tags": {"name": "Italicus", "operator": "Mo-Fr 09:00-18:00;Sa 0:00-14:00", "shop": "books"}}, {"type": "node", "id": 6919549586, "lat": 50.0721706, "lon": 19.9199364, "tags": {"addr:postcode": "30-040", "email": "gabinet@czaskobiety.com", "internet_access": "wlan", "name": "Czas kobiety", "name:en": "Medical Aesthetic Center Czas Kobiety", "name:pl": "Centrum Medycyny Estetycznej Czas Kobiety", "opening_hours": "Mo-Fr 09:00-19:00", "phone": "+48 608 404 740", "shop": "beauty", "website": "https://czaskobiety.com/"}}, {"type": "node", "id": 6934798261, "lat": 50.0670291, "lon": 19.9286614, "tags": {"check_date": "2025-07-30", "check_date:opening_hours": "2025-03-18", "level": "0", "name": "Bibu\u0142ka", "opening_hours": "Mo-Fr 08:00-19:00; Sa,Su 08:00-17:00", "shop": "pastry"}}, {"type": "node", "id": 6934803202, "lat": 50.0669962, "lon": 19.928703, "tags": {"check_date": "2025-07-30", "clothes": "underwear", "clothes:underwear": "yes", "level": "0", "name": "Bo\u015b", "opening_hours": "Sa 10:00-14:00; Mo-Fr 10:00-18:00; Su off", "shop": "clothes"}}, {"type": "node", "id": 6973291511, "lat": 50.065372, "lon": 19.9310827, "tags": {"check_date:opening_hours": "2024-07-08", "level": "0", "name": "Keen", "opening_hours": "Mo-Fr 10:00-18:00; Sa 10:00-15:00", "shop": "shoes"}}, {"type": "node", "id": 6977218535, "lat": 50.066802, "lon": 19.9289364, "tags": {"check_date": "2025-07-30", "noname": "yes", "opening_hours": "Mo-Fr 09:00-19:00; Sa 10:00-15:00", "shop": "stationery"}}, {"type": "node", "id": 6977218536, "lat": 50.0668708, "lon": 19.9288549, "tags": {"check_date:opening_hours": "2025-07-08", "name": "Loco", "opening_hours:signed": "no", "phone": "+48 882 126 387", "shop": "antiques"}}, {"type": "node", "id": 6987163924, "lat": 50.0657676, "lon": 19.9306196, "tags": {"name": "Karmelowa", "opening_hours": "Mo-Fr 08:00-18:00; Sa 08:00-14:00; Su off", "shop": "pastry"}}, {"type": "node", "id": 6987163925, "lat": 50.0655989, "lon": 19.9308217, "tags": {"check_date": "2025-10-24", "name": "S\u0142odki Dzie\u0144", "shop": "bakery"}}, {"type": "node", "id": 6987163926, "lat": 50.0655247, "lon": 19.9309057, "tags": {"name": "Panas", "opening_hours": "Mo-Fr 10:00-19:00; Sa 10:00-15:00", "shop": "shoes"}}, {"type": "node", "id": 6987163927, "lat": 50.0654752, "lon": 19.9309676, "tags": {"female": "yes", "male": "yes", "name": "Szyk", "opening_hours": "Mo-Fr 08:00-20:00; Sa 08:00-14:00", "shop": "hairdresser"}}, {"type": "node", "id": 6987163928, "lat": 50.0657071, "lon": 19.9306637, "tags": {"check_date": "2025-10-24", "name": "T. Sokolski", "opening_hours": "Mo-Fr 10:00-18:00", "shop": "shoes"}}, {"type": "node", "id": 6987163929, "lat": 50.0654463, "lon": 19.9309973, "tags": {"noname": "yes", "shop": "greengrocer"}}, {"type": "node", "id": 7023537761, "lat": 50.0600659, "lon": 19.9234662, "tags": {"level": "0", "name": "Sklep muzealny", "name:en": "Museum shop", "shop": "gift"}}, {"type": "node", "id": 7056586727, "lat": 50.075114, "lon": 19.9329461, "tags": {"charge:male_haircut": "30-37", "charge:male_haircut:hair_clipper": "30", "charge:male_haircut:scissors": "37", "name": "Euphoria", "opening_hours": "Mo-Fr 08:00-19:00; Sa 08:00-14:00", "phone": "+48 12 633 57 20", "shop": "hairdresser", "website": "https://www.facebook.com/people/Euphoria-Studio-Fryzur/100041611246074/", "wheelchair": "limited"}}, {"type": "node", "id": 7233368167, "lat": 50.0671675, "lon": 19.9289085, "tags": {"level": "0", "noname": "yes", "opening_hours": "Mo-Fr 11:00-19:00; Sa 10:00-15:00", "shop": "perfumery"}}, {"type": "node", "id": 7247684087, "lat": 50.0647393, "lon": 19.9314478, "tags": {"check_date": "2025-10-25", "shop": "vacant"}}, {"type": "node", "id": 7247857055, "lat": 50.0729334, "lon": 19.9348548, "tags": {"addr:city": "Krak\u00f3w", "addr:housenumber": "84", "addr:postcode": "30-504", "addr:street": "D\u0142uga", "email": "krakow@e-dym.pl", "name": "E-Dym", "opening_hours": "Mo-Sa 10:00-18:00", "phone": "+48 501 980 707", "shop": "e-cigarette", "website": "http://e-dym.pl"}}, {"type": "node", "id": 7476449880, "lat": 50.0709154, "lon": 19.9191195, "tags": {"shop": "vacant"}}, {"type": "node", "id": 7562822539, "lat": 50.0665906, "lon": 19.9296692, "tags": {"addr:city": "Krak\u00f3w", "addr:housenumber": "31", "addr:postcode": "31-131", "addr:street": "Karmelicka", "level": "1", "name": "Sqadnica Harcerska", "opening_hours": "Mo,Th,Fr 11:00-18:00; Tu 11:00-19:00; We 11:00-17:00; Sa 10:00-14:00", "phone": "+48 693 913 347", "shop": "sports", "website": "https://sqadnica.pl/", "wheelchair": "no", "wikidata": "Q30169599"}}, {"type": "node", "id": 7623360735, "lat": 50.0733198, "lon": 19.9354618, "tags": {"craft": "key_cutter", "name": "Klucze Express", "opening_hours": "Mo-Fr 09:00-18:00; Sa 09:00-13:00; PH closed", "shop": "locksmith"}}, {"type": "node", "id": 7623391940, "lat": 50.07329, "lon": 19.9349773, "tags": {"shop": "cosmetics"}}, {"type": "node", "id": 7633623480, "lat": 50.067865, "lon": 19.917938, "tags": {"male": "yes", "name": "Jolka", "opening_hours": "Mo-Fr 08:00-19:00; Sa 08:00-12:30", "shop": "hairdresser"}}, {"type": "node", "id": 7648943805, "lat": 50.0723626, "lon": 19.9321327, "tags": {"check_date": "2025-12-15", "name": "Puls-Med", "shop": "medical_supply"}}, {"type": "node", "id": 7648943806, "lat": 50.0722949, "lon": 19.9322474, "tags": {"check_date": "2025-12-15", "name": "THC", "shop": "tattoo"}}, {"type": "node", "id": 7655463385, "lat": 50.0687155, "lon": 19.9099155, "tags": {"addr:floor": "0", "addr:housenumber": "41", "addr:street": "Kawiory", "brand": "\u017babka", "brand:wikidata": "Q2589061", "brand:wikipedia": "pl:\u017babka (sie\u0107 sklep\u00f3w)", "check_date": "2024-10-26", "internet_access": "no", "level": "0", "name": "\u017babka", "name:pl": "\u017babka", "name:uk": "\u0416\u0430\u0431\u043a\u0430", "opening_hours": "Mo-Sa 06:00-23:00; PH,Su 12:00-21:00", "payment:blik": "yes", "payment:cash": "yes", "payment:coins": "yes", "payment:contactless": "yes", "payment:mastercard": "yes", "payment:visa": "yes", "shop": "convenience", "website": "https://zabka.pl/"}}, {"type": "node", "id": 7818066094, "lat": 50.0616959, "lon": 19.9356846, "tags": {"addr:city": "Krak\u00f3w", "addr:housenumber": "28", "addr:street": "Rynek G\u0142\u00f3wny", "check_date:opening_hours": "2024-06-10", "craft": "watchmaker", "name": "Perfekta", "opening_hours": "Mo-Fr 11:00-18:00; Sa 10:00-15:00", "shop": "watches", "website": "https://www.perfekta-krakow.pl"}}, {"type": "node", "id": 7884530240, "lat": 50.0728339, "lon": 19.9214315, "tags": {"check_date": "2025-06-09", "email": "zwierzakomania@yahoo.com", "name": "Zwierzakomania", "opening_hours": "Mo-Fr 09:00-18:00; Sa 09:00-14:00", "opening_hours:signed": "no", "payment:cash": "yes", "payment:credit_cards": "yes", "payment:debit_cards": "yes", "phone": "+48731464279", "shop": "pet_grooming", "website": "https://www.facebook.com/ZwierzakomaniaSalon/", "wheelchair": "limited"}}, {"type": "node", "id": 7885206066, "lat": 50.0728407, "lon": 19.9213429, "tags": {"name": "No to pi\u0119knie", "shop": "pottery"}}, {"type": "node", "id": 7916301571, "lat": 50.067865, "lon": 19.9280553}, {"type": "node", "id": 7916301575, "lat": 50.0679563, "lon": 19.9282446}, {"type": "node", "id": 8088513774, "lat": 50.0604215, "lon": 19.9350629, "tags": {"check_date:opening_hours": "2023-03-29", "name": "Nandu", "opening_hours": "Mo-Fr 08:00-21:00; Sa 09:00-18:00; Su 10:00-16:00", "shop": "copyshop", "wheelchair": "limited"}}, {"type": "node", "id": 8221101491, "lat": 50.0594117, "lon": 19.9268824, "tags": {"addr:city": "Krak\u00f3w", "addr:housenumber": "28", "addr:postcode": "31-111", "addr:street": "Marsza\u0142ka J\u00f3zefa Pi\u0142sudskiego", "check_date:opening_hours": "2024-09-24", "level": "-1", "name": "DoktorWet", "opening_hours": "Mo-Fr 09:00-20:00; Sa 10:00-16:00", "shop": "pet", "website": "https://vetzoo.pl"}}, {"type": "node", "id": 8221101493, "lat": 50.0594876, "lon": 19.9274249, "tags": {"addr:city": "Krak\u00f3w", "addr:housenumber": "1", "addr:postcode": "31-108", "addr:street": "Retoryka", "brand": "\u017babka", "brand:wikidata": "Q2589061", "brand:wikipedia": "pl:\u017babka (sie\u0107 sklep\u00f3w)", "level": "-1", "name": "\u017babka", "name:pl": "\u017babka", "name:uk": "\u0416\u0430\u0431\u043a\u0430", "opening_hours": "Mo-Sa 06:00-23:00; Su 10:00-21:00", "payment:blik": "yes", "payment:cash": "yes", "payment:coins": "yes", "payment:contactless": "yes", "payment:mastercard": "yes", "payment:visa": "yes", "shop": "convenience", "website": "https://zabka.pl/"}}, {"type": "node", "id": 8221101495, "lat": 50.0592897, "lon": 19.9260303, "tags": {"addr:city": "Krak\u00f3w", "addr:housenumber": "38", "addr:postcode": "31-111", "addr:street": "Marsza\u0142ka J\u00f3zefa Pi\u0142sudskiego", "female:signed": "no", "level": "-1", "male:signed": "no", "name": "Olga", "opening_hours": "Mo-Fr 08:00-19:00; Sa 08:00-14:00", "shop": "hairdresser"}}, {"type": "node", "id": 8309270431, "lat": 50.0574972, "lon": 19.9231572, "tags": {"brand": "\u017babka", "brand:wikidata": "Q2589061", "brand:wikipedia": "pl:\u017babka (sie\u0107 sklep\u00f3w)", "check_date": "2026-02-07", "name": "\u017babka", "name:pl": "\u017babka", "name:uk": "\u0416\u0430\u0431\u043a\u0430", "payment:blik": "yes", "payment:cash": "yes", "payment:coins": "yes", "payment:contactless": "yes", "payment:mastercard": "yes", "payment:visa": "yes", "shop": "convenience", "website": "https://zabka.pl/"}}, {"type": "node", "id": 8389918837, "lat": 50.0737937, "lon": 19.9111463, "tags": {"addr:city": "Krak\u00f3w", "addr:floor": "0", "addr:housenumber": "94", "addr:street": "Kr\u00f3lewska", "check_date": "2025-06-09", "email": "info@bigastyl.pl", "internet_access": "no", "level": "0", "name": "Biga", "opening_hours": "Mo-Fr 09:00-19:00; Sa 10:00-16:00", "payment:cash": "yes", "payment:credit_cards": "yes", "payment:debit_cards": "yes", "phone": "+48 12 260 10 65", "second_hand": "only", "shop": "clothes", "website": "https://bigastyl.pl", "wheelchair": "limited"}}, {"type": "node", "id": 8512301099, "lat": 50.0634418, "lon": 19.9320965, "tags": {"check_date": "2025-11-13", "shop": "vacant"}}, {"type": "node", "id": 8519068695, "lat": 50.0654062, "lon": 19.9271058, "tags": {"name": "Studio Depilacji Woskiem", "opening_hours": "Mo-Fr 10:00-19:00; Sa 10:00-16:00", "shop": "beauty", "website": "http://www.woskownia.pl"}}, {"type": "node", "id": 8519068698, "lat": 50.0654962, "lon": 19.9266227, "tags": {"check_date:opening_hours": "2023-07-03", "name": "Opyk Bro\u017cek", "opening_hours": "Mo-Fr 14:00-19:00; Sa 12:00-16:00", "shop": "optician", "website": "https://www.optyk-brozek.pl"}}, {"type": "node", "id": 8519068700, "lat": 50.0638465, "lon": 19.9279276, "tags": {"check_date:opening_hours": "2025-04-09", "name": "\u015awierczek", "opening_hours": "Mo-Fr 10:00-18:30; Sa 10:00-14:00", "payment:credit_cards": "yes", "payment:debit_cards": "yes", "shop": "optician", "website": "https://www.twojoptyk.com", "wheelchair": "no"}},